{
"type": "FeatureCollection",
"features": [
{ "type": "Feature", "properties": { "NOME_REGIONE": "LOMBARDIA", "NOME_PROVINCIA": "PAVIA", "NOME_COMUNE": "SANTA MARIA DELLA VERSA", "SPECIE": "CINGHIALE", "DATA_SOSPETTO": null, "DATA_CONFERMA": null, "ESITO": "Negativo", "DATA_PRELIEVO": "2022-06-29", "ZONAZIONE": "ZR", "CASI": 1, "LUOGO_DESCRIZIONE": "RITROVAMENTO SU SEGNALAZIONE", "ANIMALE_INCIDENTATO": "SI", "AREA": 1, "ZONA_RESTRIZIONE": "LIM" }, "geometry": { "type": "Point", "coordinates": [ 9.300455, 44.986842 ] } },
{ "type": "Feature", "properties": { "NOME_REGIONE": "LOMBARDIA", "NOME_PROVINCIA": "PAVIA", "NOME_COMUNE": "PIEVE ALBIGNOLA", "SPECIE": "SUINO", "DATA_SOSPETTO": null, "DATA_CONFERMA": null, "ESITO": "Negativo", "DATA_PRELIEVO": "2022-06-29", "ZONAZIONE": "ZR", "CASI": 1, "LUOGO_DESCRIZIONE": "ALLEVAMENTO (BREEDING)", "ANIMALE_INCIDENTATO": "Non determinato", "AREA": 1, "ZONA_RESTRIZIONE": "LIM" }, "geometry": { "type": "Point", "coordinates": [ 8.964783, 45.094485 ] } },
{ "type": "Feature", "properties": { "NOME_REGIONE": "LOMBARDIA", "NOME_PROVINCIA": "PAVIA", "NOME_COMUNE": "SAN GIORGIO DI LOMELLINA", "SPECIE": "SUINO", "DATA_SOSPETTO": null, "DATA_CONFERMA": null, "ESITO": "Negativo", "DATA_PRELIEVO": "2022-06-29", "ZONAZIONE": "ZR", "CASI": 1, "LUOGO_DESCRIZIONE": "ALLEVAMENTO (BREEDING)", "ANIMALE_INCIDENTATO": "Non determinato", "AREA": 1, "ZONA_RESTRIZIONE": "LIM" }, "geometry": { "type": "Point", "coordinates": [ 8.78055, 45.153698 ] } },
{ "type": "Feature", "properties": { "NOME_REGIONE": "LAZIO", "NOME_PROVINCIA": "RIETI", "NOME_COMUNE": "PETRELLA SALTO", "SPECIE": "SUINO", "DATA_SOSPETTO": null, "DATA_CONFERMA": null, "ESITO": "Negativo", "DATA_PRELIEVO": "2022-06-29", "ZONAZIONE": "ZP", "CASI": 1, "LUOGO_DESCRIZIONE": "ALLEVAMENTO (BREEDING)", "ANIMALE_INCIDENTATO": "Non determinato", "AREA": 3, "ZONA_RESTRIZIONE": "INF" }, "geometry": { "type": "Point", "coordinates": [ 13.02878, 42.3351 ] } },
{ "type": "Feature", "properties": { "NOME_REGIONE": "PIEMONTE", "NOME_PROVINCIA": "ALESSANDRIA", "NOME_COMUNE": "BOSIO", "SPECIE": "CINGHIALE", "DATA_SOSPETTO": null, "DATA_CONFERMA": null, "ESITO": "Negativo", "DATA_PRELIEVO": "2022-06-29", "ZONAZIONE": "ZR", "CASI": 1, "LUOGO_DESCRIZIONE": "ABBATTUTI\/CACCIATI", "ANIMALE_INCIDENTATO": "NO", "AREA": 1, "ZONA_RESTRIZIONE": "II" }, "geometry": { "type": "Point", "coordinates": [ 8.788326, 44.545286 ] } },
{ "type": "Feature", "properties": { "NOME_REGIONE": "LOMBARDIA", "NOME_PROVINCIA": "PAVIA", "NOME_COMUNE": "SANTA MARIA DELLA VERSA", "SPECIE": "CINGHIALE", "DATA_SOSPETTO": null, "DATA_CONFERMA": null, "ESITO": "Negativo", "DATA_PRELIEVO": "2022-06-29", "ZONAZIONE": "ZR", "CASI": 1, "LUOGO_DESCRIZIONE": "RITROVAMENTO SU SEGNALAZIONE", "ANIMALE_INCIDENTATO": "SI", "AREA": 1, "ZONA_RESTRIZIONE": "LIM" }, "geometry": { "type": "Point", "coordinates": [ 9.300455, 44.986842 ] } },
{ "type": "Feature", "properties": { "NOME_REGIONE": "PIEMONTE", "NOME_PROVINCIA": "CUNEO", "NOME_COMUNE": "SANTO STEFANO ROERO", "SPECIE": "CINGHIALE", "DATA_SOSPETTO": null, "DATA_CONFERMA": null, "ESITO": "Negativo", "DATA_PRELIEVO": "2022-06-29", "ZONAZIONE": "ZR", "CASI": 1, "LUOGO_DESCRIZIONE": "RITROVAMENTO SU SEGNALAZIONE", "ANIMALE_INCIDENTATO": "NON DETERMINATO", "AREA": 1, "ZONA_RESTRIZIONE": "LIM" }, "geometry": { "type": "Point", "coordinates": [ 7.941874, 44.788357 ] } },
{ "type": "Feature", "properties": { "NOME_REGIONE": "PIEMONTE", "NOME_PROVINCIA": "ALESSANDRIA", "NOME_COMUNE": "BOSIO", "SPECIE": "CINGHIALE", "DATA_SOSPETTO": null, "DATA_CONFERMA": null, "ESITO": "Negativo", "DATA_PRELIEVO": "2022-06-29", "ZONAZIONE": "ZR", "CASI": 1, "LUOGO_DESCRIZIONE": "ABBATTUTI\/CACCIATI", "ANIMALE_INCIDENTATO": "NO", "AREA": 1, "ZONA_RESTRIZIONE": "II" }, "geometry": { "type": "Point", "coordinates": [ 8.788396, 44.545286 ] } },
{ "type": "Feature", "properties": { "NOME_REGIONE": "PIEMONTE", "NOME_PROVINCIA": "ALESSANDRIA", "NOME_COMUNE": "BOSIO", "SPECIE": "CINGHIALE", "DATA_SOSPETTO": null, "DATA_CONFERMA": null, "ESITO": "Negativo", "DATA_PRELIEVO": "2022-06-29", "ZONAZIONE": "ZR", "CASI": 1, "LUOGO_DESCRIZIONE": "ABBATTUTI\/CACCIATI", "ANIMALE_INCIDENTATO": "NO", "AREA": 1, "ZONA_RESTRIZIONE": "II" }, "geometry": { "type": "Point", "coordinates": [ 8.788342, 44.545309 ] } },
{ "type": "Feature", "properties": { "NOME_REGIONE": "PIEMONTE", "NOME_PROVINCIA": "ALESSANDRIA", "NOME_COMUNE": "ROCCA GRIMALDA", "SPECIE": "CINGHIALE", "DATA_SOSPETTO": "2022-06-29", "DATA_CONFERMA": "2022-07-01", "ESITO": "Positivo", "DATA_PRELIEVO": "2022-06-29", "ZONAZIONE": "ZR", "CASI": 1, "LUOGO_DESCRIZIONE": "RITROVAMENTO SU SEGNALAZIONE", "ANIMALE_INCIDENTATO": "SI", "AREA": 1, "ZONA_RESTRIZIONE": "II" }, "geometry": { "type": "Point", "coordinates": [ 8.653681, 44.674615 ] } },
{ "type": "Feature", "properties": { "NOME_REGIONE": "PIEMONTE", "NOME_PROVINCIA": "CUNEO", "NOME_COMUNE": "SALUZZO", "SPECIE": "SUINO", "DATA_SOSPETTO": null, "DATA_CONFERMA": null, "ESITO": "Negativo", "DATA_PRELIEVO": "2022-06-29", "ZONAZIONE": "ZR", "CASI": 1, "LUOGO_DESCRIZIONE": "ALLEVAMENTO (BREEDING)", "ANIMALE_INCIDENTATO": "Non determinato", "AREA": 1, "ZONA_RESTRIZIONE": "LIM" }, "geometry": { "type": "Point", "coordinates": [ 7.501022, 44.628641 ] } },
{ "type": "Feature", "properties": { "NOME_REGIONE": "PIEMONTE", "NOME_PROVINCIA": "ALESSANDRIA", "NOME_COMUNE": "BOSIO", "SPECIE": "CINGHIALE", "DATA_SOSPETTO": null, "DATA_CONFERMA": null, "ESITO": "Negativo", "DATA_PRELIEVO": "2022-06-29", "ZONAZIONE": "ZR", "CASI": 1, "LUOGO_DESCRIZIONE": "ABBATTUTI\/CACCIATI", "ANIMALE_INCIDENTATO": "NO", "AREA": 1, "ZONA_RESTRIZIONE": "II" }, "geometry": { "type": "Point", "coordinates": [ 8.788417, 44.54534 ] } },
{ "type": "Feature", "properties": { "NOME_REGIONE": "LIGURIA", "NOME_PROVINCIA": "SAVONA", "NOME_COMUNE": "FINALE LIGURE", "SPECIE": "CINGHIALE", "DATA_SOSPETTO": null, "DATA_CONFERMA": null, "ESITO": "Negativo", "DATA_PRELIEVO": "2022-06-29", "ZONAZIONE": "ZR", "CASI": 1, "LUOGO_DESCRIZIONE": "RITROVAMENTO SU SEGNALAZIONE", "ANIMALE_INCIDENTATO": "NO", "AREA": 1, "ZONA_RESTRIZIONE": "LIM" }, "geometry": { "type": "Point", "coordinates": [ 8.386236, 44.183498 ] } },
{ "type": "Feature", "properties": { "NOME_REGIONE": "PIEMONTE", "NOME_PROVINCIA": "ALESSANDRIA", "NOME_COMUNE": "BORGHETTO DI BORBERA", "SPECIE": "CINGHIALE", "DATA_SOSPETTO": null, "DATA_CONFERMA": null, "ESITO": "Negativo", "DATA_PRELIEVO": "2022-06-29", "ZONAZIONE": "ZR", "CASI": 1, "LUOGO_DESCRIZIONE": "RITROVAMENTO SU SEGNALAZIONE", "ANIMALE_INCIDENTATO": "SI", "AREA": 1, "ZONA_RESTRIZIONE": "II" }, "geometry": { "type": "Point", "coordinates": [ 8.936151, 44.730054 ] } },
{ "type": "Feature", "properties": { "NOME_REGIONE": "LIGURIA", "NOME_PROVINCIA": "SAVONA", "NOME_COMUNE": "FINALE LIGURE", "SPECIE": "CINGHIALE", "DATA_SOSPETTO": null, "DATA_CONFERMA": null, "ESITO": "Negativo", "DATA_PRELIEVO": "2022-06-29", "ZONAZIONE": "ZR", "CASI": 1, "LUOGO_DESCRIZIONE": "RITROVAMENTO SU SEGNALAZIONE", "ANIMALE_INCIDENTATO": "NO", "AREA": 1, "ZONA_RESTRIZIONE": "LIM" }, "geometry": { "type": "Point", "coordinates": [ 8.386243, 44.183483 ] } },
{ "type": "Feature", "properties": { "NOME_REGIONE": "LIGURIA", "NOME_PROVINCIA": "GENOVA", "NOME_COMUNE": "GENOVA", "SPECIE": "CINGHIALE", "DATA_SOSPETTO": null, "DATA_CONFERMA": null, "ESITO": "Negativo", "DATA_PRELIEVO": "2022-06-29", "ZONAZIONE": "ZR", "CASI": 1, "LUOGO_DESCRIZIONE": "RITROVAMENTO SU SEGNALAZIONE", "ANIMALE_INCIDENTATO": "SI", "AREA": 1, "ZONA_RESTRIZIONE": "II" }, "geometry": { "type": "Point", "coordinates": [ 8.9662, 44.442986 ] } },
{ "type": "Feature", "properties": { "NOME_REGIONE": "LAZIO", "NOME_PROVINCIA": "ROMA", "NOME_COMUNE": "ROMA", "SPECIE": "CINGHIALE", "DATA_SOSPETTO": "2022-06-29", "DATA_CONFERMA": "2022-06-30", "ESITO": "Positivo", "DATA_PRELIEVO": "2022-06-29", "ZONAZIONE": "ZR", "CASI": 1, "LUOGO_DESCRIZIONE": "RITROVAMENTO SU SEGNALAZIONE", "ANIMALE_INCIDENTATO": "NO", "AREA": 2, "ZONA_RESTRIZIONE": "III" }, "geometry": { "type": "Point", "coordinates": [ 12.439245, 41.962208 ] } },
{ "type": "Feature", "properties": { "NOME_REGIONE": "PIEMONTE", "NOME_PROVINCIA": "CUNEO", "NOME_COMUNE": "CAVALLERMAGGIORE", "SPECIE": "SUINO", "DATA_SOSPETTO": null, "DATA_CONFERMA": null, "ESITO": "Negativo", "DATA_PRELIEVO": "2022-06-29", "ZONAZIONE": "ZR", "CASI": 1, "LUOGO_DESCRIZIONE": "ALLEVAMENTO (BREEDING)", "ANIMALE_INCIDENTATO": "Non determinato", "AREA": 1, "ZONA_RESTRIZIONE": "LIM" }, "geometry": { "type": "Point", "coordinates": [ 7.720204, 44.693262 ] } },
{ "type": "Feature", "properties": { "NOME_REGIONE": "PIEMONTE", "NOME_PROVINCIA": "ALESSANDRIA", "NOME_COMUNE": "BORGHETTO DI BORBERA", "SPECIE": "CINGHIALE", "DATA_SOSPETTO": null, "DATA_CONFERMA": null, "ESITO": "Negativo", "DATA_PRELIEVO": "2022-06-29", "ZONAZIONE": "ZR", "CASI": 1, "LUOGO_DESCRIZIONE": "RITROVAMENTO SU SEGNALAZIONE", "ANIMALE_INCIDENTATO": "SI", "AREA": 1, "ZONA_RESTRIZIONE": "II" }, "geometry": { "type": "Point", "coordinates": [ 8.936044, 44.730085 ] } },
{ "type": "Feature", "properties": { "NOME_REGIONE": "PIEMONTE", "NOME_PROVINCIA": "CUNEO", "NOME_COMUNE": "FOSSANO", "SPECIE": "SUINO", "DATA_SOSPETTO": null, "DATA_CONFERMA": null, "ESITO": "Negativo", "DATA_PRELIEVO": "2022-06-29", "ZONAZIONE": "ZR", "CASI": 1, "LUOGO_DESCRIZIONE": "ALLEVAMENTO (BREEDING)", "ANIMALE_INCIDENTATO": "Non determinato", "AREA": 1, "ZONA_RESTRIZIONE": "LIM" }, "geometry": { "type": "Point", "coordinates": [ 7.711102, 44.564624 ] } },
{ "type": "Feature", "properties": { "NOME_REGIONE": "LOMBARDIA", "NOME_PROVINCIA": "PAVIA", "NOME_COMUNE": "FILIGHERA", "SPECIE": "SUINO", "DATA_SOSPETTO": null, "DATA_CONFERMA": null, "ESITO": "Negativo", "DATA_PRELIEVO": "2022-06-29", "ZONAZIONE": "ZR", "CASI": 1, "LUOGO_DESCRIZIONE": "ALLEVAMENTO (BREEDING)", "ANIMALE_INCIDENTATO": "Non determinato", "AREA": 1, "ZONA_RESTRIZIONE": "LIM" }, "geometry": { "type": "Point", "coordinates": [ 9.295627, 45.184341 ] } },
{ "type": "Feature", "properties": { "NOME_REGIONE": "LOMBARDIA", "NOME_PROVINCIA": "PAVIA", "NOME_COMUNE": "ZINASCO", "SPECIE": "SUINO", "DATA_SOSPETTO": null, "DATA_CONFERMA": null, "ESITO": "Negativo", "DATA_PRELIEVO": "2022-06-29", "ZONAZIONE": "ZR", "CASI": 1, "LUOGO_DESCRIZIONE": "ALLEVAMENTO (BREEDING)", "ANIMALE_INCIDENTATO": "Non determinato", "AREA": 1, "ZONA_RESTRIZIONE": "LIM" }, "geometry": { "type": "Point", "coordinates": [ 9.009357, 45.132774 ] } },
{ "type": "Feature", "properties": { "NOME_REGIONE": "LOMBARDIA", "NOME_PROVINCIA": "PAVIA", "NOME_COMUNE": "PIEVE ALBIGNOLA", "SPECIE": "SUINO", "DATA_SOSPETTO": null, "DATA_CONFERMA": null, "ESITO": "Negativo", "DATA_PRELIEVO": "2022-06-29", "ZONAZIONE": "ZR", "CASI": 1, "LUOGO_DESCRIZIONE": "ALLEVAMENTO (BREEDING)", "ANIMALE_INCIDENTATO": "Non determinato", "AREA": 1, "ZONA_RESTRIZIONE": "LIM" }, "geometry": { "type": "Point", "coordinates": [ 8.964783, 45.094485 ] } },
{ "type": "Feature", "properties": { "NOME_REGIONE": "PIEMONTE", "NOME_PROVINCIA": "ALESSANDRIA", "NOME_COMUNE": "MASIO", "SPECIE": "SUINO", "DATA_SOSPETTO": null, "DATA_CONFERMA": null, "ESITO": "Negativo", "DATA_PRELIEVO": "2022-06-29", "ZONAZIONE": "ZR", "CASI": 1, "LUOGO_DESCRIZIONE": "ALLEVAMENTO (BREEDING)", "ANIMALE_INCIDENTATO": "Non determinato", "AREA": 1, "ZONA_RESTRIZIONE": "LIM" }, "geometry": { "type": "Point", "coordinates": [ 8.451836, 44.864002 ] } },
{ "type": "Feature", "properties": { "NOME_REGIONE": "LOMBARDIA", "NOME_PROVINCIA": "PAVIA", "NOME_COMUNE": "SANTA MARIA DELLA VERSA", "SPECIE": "CINGHIALE", "DATA_SOSPETTO": null, "DATA_CONFERMA": null, "ESITO": "Negativo", "DATA_PRELIEVO": "2022-06-29", "ZONAZIONE": "ZR", "CASI": 1, "LUOGO_DESCRIZIONE": "RITROVAMENTO SU SEGNALAZIONE", "ANIMALE_INCIDENTATO": "SI", "AREA": 1, "ZONA_RESTRIZIONE": "LIM" }, "geometry": { "type": "Point", "coordinates": [ 9.300455, 44.986842 ] } },
{ "type": "Feature", "properties": { "NOME_REGIONE": "LOMBARDIA", "NOME_PROVINCIA": "PAVIA", "NOME_COMUNE": "CORTEOLONA E GENZONE", "SPECIE": "SUINO", "DATA_SOSPETTO": null, "DATA_CONFERMA": null, "ESITO": "Negativo", "DATA_PRELIEVO": "2022-06-29", "ZONAZIONE": "ZR", "CASI": 1, "LUOGO_DESCRIZIONE": "ALLEVAMENTO (BREEDING)", "ANIMALE_INCIDENTATO": "Non determinato", "AREA": 1, "ZONA_RESTRIZIONE": "LIM" }, "geometry": { "type": "Point", "coordinates": [ 9.34165, 45.186094 ] } },
{ "type": "Feature", "properties": { "NOME_REGIONE": "PIEMONTE", "NOME_PROVINCIA": "ALESSANDRIA", "NOME_COMUNE": "ROCCA GRIMALDA", "SPECIE": "CINGHIALE", "DATA_SOSPETTO": "2022-06-29", "DATA_CONFERMA": "2022-07-01", "ESITO": "Positivo", "DATA_PRELIEVO": "2022-06-29", "ZONAZIONE": "ZR", "CASI": 1, "LUOGO_DESCRIZIONE": "RITROVAMENTO SU SEGNALAZIONE", "ANIMALE_INCIDENTATO": "SI", "AREA": 1, "ZONA_RESTRIZIONE": "II" }, "geometry": { "type": "Point", "coordinates": [ 8.653359, 44.674035 ] } },
{ "type": "Feature", "properties": { "NOME_REGIONE": "LOMBARDIA", "NOME_PROVINCIA": "PAVIA", "NOME_COMUNE": "ZINASCO", "SPECIE": "SUINO", "DATA_SOSPETTO": null, "DATA_CONFERMA": null, "ESITO": "Negativo", "DATA_PRELIEVO": "2022-06-29", "ZONAZIONE": "ZR", "CASI": 1, "LUOGO_DESCRIZIONE": "ALLEVAMENTO (BREEDING)", "ANIMALE_INCIDENTATO": "Non determinato", "AREA": 1, "ZONA_RESTRIZIONE": "LIM" }, "geometry": { "type": "Point", "coordinates": [ 9.009357, 45.132774 ] } },
{ "type": "Feature", "properties": { "NOME_REGIONE": "LOMBARDIA", "NOME_PROVINCIA": "PAVIA", "NOME_COMUNE": "SAN GIORGIO DI LOMELLINA", "SPECIE": "SUINO", "DATA_SOSPETTO": null, "DATA_CONFERMA": null, "ESITO": "Negativo", "DATA_PRELIEVO": "2022-06-29", "ZONAZIONE": "ZR", "CASI": 1, "LUOGO_DESCRIZIONE": "ALLEVAMENTO (BREEDING)", "ANIMALE_INCIDENTATO": "Non determinato", "AREA": 1, "ZONA_RESTRIZIONE": "LIM" }, "geometry": { "type": "Point", "coordinates": [ 8.78055, 45.153698 ] } },
{ "type": "Feature", "properties": { "NOME_REGIONE": "LIGURIA", "NOME_PROVINCIA": "SAVONA", "NOME_COMUNE": "SAVONA", "SPECIE": "CINGHIALE", "DATA_SOSPETTO": null, "DATA_CONFERMA": null, "ESITO": "Negativo", "DATA_PRELIEVO": "2022-06-29", "ZONAZIONE": "ZR", "CASI": 1, "LUOGO_DESCRIZIONE": "RITROVAMENTO SU SEGNALAZIONE", "ANIMALE_INCIDENTATO": "SI", "AREA": 1, "ZONA_RESTRIZIONE": "I" }, "geometry": { "type": "Point", "coordinates": [ 8.435618, 44.346002 ] } },
{ "type": "Feature", "properties": { "NOME_REGIONE": "LOMBARDIA", "NOME_PROVINCIA": "PAVIA", "NOME_COMUNE": "CORTEOLONA E GENZONE", "SPECIE": "SUINO", "DATA_SOSPETTO": null, "DATA_CONFERMA": null, "ESITO": "Negativo", "DATA_PRELIEVO": "2022-06-29", "ZONAZIONE": "ZR", "CASI": 1, "LUOGO_DESCRIZIONE": "ALLEVAMENTO (BREEDING)", "ANIMALE_INCIDENTATO": "Non determinato", "AREA": 1, "ZONA_RESTRIZIONE": "LIM" }, "geometry": { "type": "Point", "coordinates": [ 9.34165, 45.186094 ] } },
{ "type": "Feature", "properties": { "NOME_REGIONE": "LOMBARDIA", "NOME_PROVINCIA": "PAVIA", "NOME_COMUNE": "FILIGHERA", "SPECIE": "SUINO", "DATA_SOSPETTO": null, "DATA_CONFERMA": null, "ESITO": "Negativo", "DATA_PRELIEVO": "2022-06-29", "ZONAZIONE": "ZR", "CASI": 1, "LUOGO_DESCRIZIONE": "ALLEVAMENTO (BREEDING)", "ANIMALE_INCIDENTATO": "Non determinato", "AREA": 1, "ZONA_RESTRIZIONE": "LIM" }, "geometry": { "type": "Point", "coordinates": [ 9.295627, 45.184341 ] } },
{ "type": "Feature", "properties": { "NOME_REGIONE": "LOMBARDIA", "NOME_PROVINCIA": "PAVIA", "NOME_COMUNE": "VILLANTERIO", "SPECIE": "SUINO", "DATA_SOSPETTO": null, "DATA_CONFERMA": null, "ESITO": "Negativo", "DATA_PRELIEVO": "2022-06-29", "ZONAZIONE": "ZR", "CASI": 1, "LUOGO_DESCRIZIONE": "ALLEVAMENTO (BREEDING)", "ANIMALE_INCIDENTATO": "Non determinato", "AREA": 1, "ZONA_RESTRIZIONE": "LIM" }, "geometry": { "type": "Point", "coordinates": [ 9.366998, 45.230402 ] } },
{ "type": "Feature", "properties": { "NOME_REGIONE": "LAZIO", "NOME_PROVINCIA": "ROMA", "NOME_COMUNE": "ROMA", "SPECIE": "CINGHIALE", "DATA_SOSPETTO": null, "DATA_CONFERMA": null, "ESITO": "Negativo", "DATA_PRELIEVO": "2022-06-28", "ZONAZIONE": "ZR", "CASI": 1, "LUOGO_DESCRIZIONE": "ABBATTUTI\/CACCIATI", "ANIMALE_INCIDENTATO": "NO", "AREA": 2, "ZONA_RESTRIZIONE": "III" }, "geometry": { "type": "Point", "coordinates": [ 12.410471, 42.00504 ] } },
{ "type": "Feature", "properties": { "NOME_REGIONE": "LAZIO", "NOME_PROVINCIA": "ROMA", "NOME_COMUNE": "ROMA", "SPECIE": "CINGHIALE", "DATA_SOSPETTO": null, "DATA_CONFERMA": null, "ESITO": "Negativo", "DATA_PRELIEVO": "2022-06-28", "ZONAZIONE": "ZR", "CASI": 1, "LUOGO_DESCRIZIONE": "ABBATTUTI\/CACCIATI", "ANIMALE_INCIDENTATO": "NO", "AREA": 2, "ZONA_RESTRIZIONE": "III" }, "geometry": { "type": "Point", "coordinates": [ 12.410471, 42.00504 ] } },
{ "type": "Feature", "properties": { "NOME_REGIONE": "LOMBARDIA", "NOME_PROVINCIA": "PAVIA", "NOME_COMUNE": "TROMELLO", "SPECIE": "SUINO", "DATA_SOSPETTO": null, "DATA_CONFERMA": null, "ESITO": "Negativo", "DATA_PRELIEVO": "2022-06-28", "ZONAZIONE": "ZR", "CASI": 1, "LUOGO_DESCRIZIONE": "ALLEVAMENTO (BREEDING)", "ANIMALE_INCIDENTATO": "Non determinato", "AREA": 1, "ZONA_RESTRIZIONE": "LIM" }, "geometry": { "type": "Point", "coordinates": [ 8.878522, 45.223777 ] } },
{ "type": "Feature", "properties": { "NOME_REGIONE": "LAZIO", "NOME_PROVINCIA": "ROMA", "NOME_COMUNE": "ROMA", "SPECIE": "CINGHIALE", "DATA_SOSPETTO": null, "DATA_CONFERMA": null, "ESITO": "Negativo", "DATA_PRELIEVO": "2022-06-28", "ZONAZIONE": "ZR", "CASI": 1, "LUOGO_DESCRIZIONE": "ABBATTUTI\/CACCIATI", "ANIMALE_INCIDENTATO": "NO", "AREA": 2, "ZONA_RESTRIZIONE": "III" }, "geometry": { "type": "Point", "coordinates": [ 12.410471, 42.00504 ] } },
{ "type": "Feature", "properties": { "NOME_REGIONE": "ABRUZZO", "NOME_PROVINCIA": "L'AQUILA", "NOME_COMUNE": "SAN DEMETRIO NE' VESTINI", "SPECIE": "SUINO", "DATA_SOSPETTO": null, "DATA_CONFERMA": null, "ESITO": "Negativo", "DATA_PRELIEVO": "2022-06-28", "ZONAZIONE": "ZP", "CASI": 1, "LUOGO_DESCRIZIONE": "ALLEVAMENTO (BREEDING)", "ANIMALE_INCIDENTATO": "Non determinato", "AREA": 3, "ZONA_RESTRIZIONE": "LIM" }, "geometry": { "type": "Point", "coordinates": [ 13.553862, 42.270158 ] } },
{ "type": "Feature", "properties": { "NOME_REGIONE": "LAZIO", "NOME_PROVINCIA": "ROMA", "NOME_COMUNE": "ROMA", "SPECIE": "CINGHIALE", "DATA_SOSPETTO": null, "DATA_CONFERMA": null, "ESITO": "Negativo", "DATA_PRELIEVO": "2022-06-28", "ZONAZIONE": "ZR", "CASI": 1, "LUOGO_DESCRIZIONE": "ABBATTUTI\/CACCIATI", "ANIMALE_INCIDENTATO": "NO", "AREA": 2, "ZONA_RESTRIZIONE": "III" }, "geometry": { "type": "Point", "coordinates": [ 12.410471, 42.00504 ] } },
{ "type": "Feature", "properties": { "NOME_REGIONE": "PIEMONTE", "NOME_PROVINCIA": "CUNEO", "NOME_COMUNE": "FOSSANO", "SPECIE": "SUINO", "DATA_SOSPETTO": null, "DATA_CONFERMA": null, "ESITO": "Negativo", "DATA_PRELIEVO": "2022-06-28", "ZONAZIONE": "ZR", "CASI": 1, "LUOGO_DESCRIZIONE": "ALLEVAMENTO (BREEDING)", "ANIMALE_INCIDENTATO": "Non determinato", "AREA": 1, "ZONA_RESTRIZIONE": "LIM" }, "geometry": { "type": "Point", "coordinates": [ 7.650751, 44.494598 ] } },
{ "type": "Feature", "properties": { "NOME_REGIONE": "LAZIO", "NOME_PROVINCIA": "ROMA", "NOME_COMUNE": "ROMA", "SPECIE": "CINGHIALE", "DATA_SOSPETTO": null, "DATA_CONFERMA": null, "ESITO": "Negativo", "DATA_PRELIEVO": "2022-06-28", "ZONAZIONE": "ZR", "CASI": 1, "LUOGO_DESCRIZIONE": "ABBATTUTI\/CACCIATI", "ANIMALE_INCIDENTATO": "NO", "AREA": 2, "ZONA_RESTRIZIONE": "III" }, "geometry": { "type": "Point", "coordinates": [ 12.410471, 42.00504 ] } },
{ "type": "Feature", "properties": { "NOME_REGIONE": "SARDEGNA", "NOME_PROVINCIA": "SUD SARDEGNA", "NOME_COMUNE": "SADALI", "SPECIE": "SUINO", "DATA_SOSPETTO": null, "DATA_CONFERMA": null, "ESITO": "Negativo", "DATA_PRELIEVO": "2022-06-28", "ZONAZIONE": "ZR", "CASI": 1, "LUOGO_DESCRIZIONE": "ALLEVAMENTO (BREEDING)", "ANIMALE_INCIDENTATO": "Non determinato", "AREA": 4, "ZONA_RESTRIZIONE": "III" }, "geometry": { "type": "Point", "coordinates": [ 9.2424, 39.8166 ] } },
{ "type": "Feature", "properties": { "NOME_REGIONE": "SARDEGNA", "NOME_PROVINCIA": "ORISTANO", "NOME_COMUNE": "SENIS", "SPECIE": "SUINO", "DATA_SOSPETTO": null, "DATA_CONFERMA": null, "ESITO": "Negativo", "DATA_PRELIEVO": "2022-06-28", "ZONAZIONE": "ZR", "CASI": 1, "LUOGO_DESCRIZIONE": "ALLEVAMENTO (BREEDING)", "ANIMALE_INCIDENTATO": "Non determinato", "AREA": 4, "ZONA_RESTRIZIONE": "III" }, "geometry": { "type": "Point", "coordinates": [ 8.943733, 39.827066 ] } },
{ "type": "Feature", "properties": { "NOME_REGIONE": "LAZIO", "NOME_PROVINCIA": "ROMA", "NOME_COMUNE": "ROMA", "SPECIE": "CINGHIALE", "DATA_SOSPETTO": null, "DATA_CONFERMA": null, "ESITO": "Negativo", "DATA_PRELIEVO": "2022-06-28", "ZONAZIONE": "ZR", "CASI": 1, "LUOGO_DESCRIZIONE": "ABBATTUTI\/CACCIATI", "ANIMALE_INCIDENTATO": "NO", "AREA": 2, "ZONA_RESTRIZIONE": "III" }, "geometry": { "type": "Point", "coordinates": [ 12.410471, 42.00504 ] } },
{ "type": "Feature", "properties": { "NOME_REGIONE": "LIGURIA", "NOME_PROVINCIA": "GENOVA", "NOME_COMUNE": "GENOVA", "SPECIE": "CINGHIALE", "DATA_SOSPETTO": null, "DATA_CONFERMA": null, "ESITO": "Negativo", "DATA_PRELIEVO": "2022-06-28", "ZONAZIONE": "ZR", "CASI": 1, "LUOGO_DESCRIZIONE": "RITROVAMENTO SU SEGNALAZIONE", "ANIMALE_INCIDENTATO": "SI", "AREA": 1, "ZONA_RESTRIZIONE": "II" }, "geometry": { "type": "Point", "coordinates": [ 8.81225, 44.43245 ] } },
{ "type": "Feature", "properties": { "NOME_REGIONE": "ABRUZZO", "NOME_PROVINCIA": "L'AQUILA", "NOME_COMUNE": "OPI", "SPECIE": "CINGHIALE", "DATA_SOSPETTO": null, "DATA_CONFERMA": null, "ESITO": "Negativo", "DATA_PRELIEVO": "2022-06-28", "ZONAZIONE": "ZP", "CASI": 1, "LUOGO_DESCRIZIONE": "RITROVAMENTO SU SEGNALAZIONE", "ANIMALE_INCIDENTATO": "SI", "AREA": 3, "ZONA_RESTRIZIONE": "LIM" }, "geometry": { "type": "Point", "coordinates": [ 13.85548, 41.78036 ] } },
{ "type": "Feature", "properties": { "NOME_REGIONE": "LAZIO", "NOME_PROVINCIA": "ROMA", "NOME_COMUNE": "ROMA", "SPECIE": "CINGHIALE", "DATA_SOSPETTO": null, "DATA_CONFERMA": null, "ESITO": "Negativo", "DATA_PRELIEVO": "2022-06-28", "ZONAZIONE": "ZR", "CASI": 1, "LUOGO_DESCRIZIONE": "ABBATTUTI\/CACCIATI", "ANIMALE_INCIDENTATO": "NO", "AREA": 2, "ZONA_RESTRIZIONE": "III" }, "geometry": { "type": "Point", "coordinates": [ 12.410471, 42.00504 ] } },
{ "type": "Feature", "properties": { "NOME_REGIONE": "PIEMONTE", "NOME_PROVINCIA": "ALESSANDRIA", "NOME_COMUNE": "BOSIO", "SPECIE": "CINGHIALE", "DATA_SOSPETTO": null, "DATA_CONFERMA": null, "ESITO": "Negativo", "DATA_PRELIEVO": "2022-06-28", "ZONAZIONE": "ZR", "CASI": 1, "LUOGO_DESCRIZIONE": "ABBATTUTI\/CACCIATI", "ANIMALE_INCIDENTATO": "NO", "AREA": 1, "ZONA_RESTRIZIONE": "II" }, "geometry": { "type": "Point", "coordinates": [ 8.781894, 44.56472 ] } },
{ "type": "Feature", "properties": { "NOME_REGIONE": "LOMBARDIA", "NOME_PROVINCIA": "PAVIA", "NOME_COMUNE": "ALBUZZANO", "SPECIE": "SUINO", "DATA_SOSPETTO": null, "DATA_CONFERMA": null, "ESITO": "Negativo", "DATA_PRELIEVO": "2022-06-28", "ZONAZIONE": "ZR", "CASI": 1, "LUOGO_DESCRIZIONE": "ALLEVAMENTO (BREEDING)", "ANIMALE_INCIDENTATO": "Non determinato", "AREA": 1, "ZONA_RESTRIZIONE": "LIM" }, "geometry": { "type": "Point", "coordinates": [ 9.282114, 45.167155 ] } },
{ "type": "Feature", "properties": { "NOME_REGIONE": "LAZIO", "NOME_PROVINCIA": "ROMA", "NOME_COMUNE": "ROMA", "SPECIE": "CINGHIALE", "DATA_SOSPETTO": null, "DATA_CONFERMA": null, "ESITO": "Negativo", "DATA_PRELIEVO": "2022-06-28", "ZONAZIONE": "ZR", "CASI": 1, "LUOGO_DESCRIZIONE": "ABBATTUTI\/CACCIATI", "ANIMALE_INCIDENTATO": "NO", "AREA": 2, "ZONA_RESTRIZIONE": "III" }, "geometry": { "type": "Point", "coordinates": [ 12.410471, 42.00504 ] } },
{ "type": "Feature", "properties": { "NOME_REGIONE": "LAZIO", "NOME_PROVINCIA": "ROMA", "NOME_COMUNE": "ROMA", "SPECIE": "CINGHIALE", "DATA_SOSPETTO": null, "DATA_CONFERMA": null, "ESITO": "Negativo", "DATA_PRELIEVO": "2022-06-28", "ZONAZIONE": "ZR", "CASI": 1, "LUOGO_DESCRIZIONE": "ABBATTUTI\/CACCIATI", "ANIMALE_INCIDENTATO": "NO", "AREA": 2, "ZONA_RESTRIZIONE": "III" }, "geometry": { "type": "Point", "coordinates": [ 12.410471, 42.00504 ] } },
{ "type": "Feature", "properties": { "NOME_REGIONE": "PIEMONTE", "NOME_PROVINCIA": "CUNEO", "NOME_COMUNE": "VILLAFALLETTO", "SPECIE": "SUINO", "DATA_SOSPETTO": null, "DATA_CONFERMA": null, "ESITO": "Negativo", "DATA_PRELIEVO": "2022-06-28", "ZONAZIONE": "ZR", "CASI": 1, "LUOGO_DESCRIZIONE": "ALLEVAMENTO (BREEDING)", "ANIMALE_INCIDENTATO": "Non determinato", "AREA": 1, "ZONA_RESTRIZIONE": "LIM" }, "geometry": { "type": "Point", "coordinates": [ 7.531487, 44.577831 ] } },
{ "type": "Feature", "properties": { "NOME_REGIONE": "LAZIO", "NOME_PROVINCIA": "ROMA", "NOME_COMUNE": "ROMA", "SPECIE": "SUINO", "DATA_SOSPETTO": null, "DATA_CONFERMA": null, "ESITO": "Negativo", "DATA_PRELIEVO": "2022-06-28", "ZONAZIONE": "ZR", "CASI": 1, "LUOGO_DESCRIZIONE": "ALLEVAMENTO (BREEDING)", "ANIMALE_INCIDENTATO": "Non determinato", "AREA": 2, "ZONA_RESTRIZIONE": "III" }, "geometry": { "type": "Point", "coordinates": [ 12.34256, 41.89099 ] } },
{ "type": "Feature", "properties": { "NOME_REGIONE": "LIGURIA", "NOME_PROVINCIA": "GENOVA", "NOME_COMUNE": "PIEVE LIGURE", "SPECIE": "CINGHIALE", "DATA_SOSPETTO": null, "DATA_CONFERMA": null, "ESITO": "Negativo", "DATA_PRELIEVO": "2022-06-28", "ZONAZIONE": "ZR", "CASI": 1, "LUOGO_DESCRIZIONE": "ABBATTUTI\/CACCIATI", "ANIMALE_INCIDENTATO": "NO", "AREA": 1, "ZONA_RESTRIZIONE": "II" }, "geometry": { "type": "Point", "coordinates": [ 9.08611, 44.37525 ] } },
{ "type": "Feature", "properties": { "NOME_REGIONE": "LAZIO", "NOME_PROVINCIA": "ROMA", "NOME_COMUNE": "ROMA", "SPECIE": "CINGHIALE", "DATA_SOSPETTO": null, "DATA_CONFERMA": null, "ESITO": "Negativo", "DATA_PRELIEVO": "2022-06-28", "ZONAZIONE": "ZR", "CASI": 1, "LUOGO_DESCRIZIONE": "ABBATTUTI\/CACCIATI", "ANIMALE_INCIDENTATO": "NO", "AREA": 2, "ZONA_RESTRIZIONE": "III" }, "geometry": { "type": "Point", "coordinates": [ 12.410471, 42.00504 ] } },
{ "type": "Feature", "properties": { "NOME_REGIONE": "PIEMONTE", "NOME_PROVINCIA": "CUNEO", "NOME_COMUNE": "CORTEMILIA", "SPECIE": "CINGHIALE", "DATA_SOSPETTO": null, "DATA_CONFERMA": null, "ESITO": "Negativo", "DATA_PRELIEVO": "2022-06-28", "ZONAZIONE": "ZR", "CASI": 1, "LUOGO_DESCRIZIONE": "RITROVAMENTO SU SEGNALAZIONE", "ANIMALE_INCIDENTATO": "NON DETERMINATO", "AREA": 1, "ZONA_RESTRIZIONE": "LIM" }, "geometry": { "type": "Point", "coordinates": [ 8.192209, 44.580758 ] } },
{ "type": "Feature", "properties": { "NOME_REGIONE": "PIEMONTE", "NOME_PROVINCIA": "CUNEO", "NOME_COMUNE": "RACCONIGI", "SPECIE": "SUINO", "DATA_SOSPETTO": null, "DATA_CONFERMA": null, "ESITO": "Negativo", "DATA_PRELIEVO": "2022-06-28", "ZONAZIONE": "ZR", "CASI": 1, "LUOGO_DESCRIZIONE": "ALLEVAMENTO (BREEDING)", "ANIMALE_INCIDENTATO": "Non determinato", "AREA": 1, "ZONA_RESTRIZIONE": "LIM" }, "geometry": { "type": "Point", "coordinates": [ 7.632203, 44.75957 ] } },
{ "type": "Feature", "properties": { "NOME_REGIONE": "LAZIO", "NOME_PROVINCIA": "ROMA", "NOME_COMUNE": "ROMA", "SPECIE": "CINGHIALE", "DATA_SOSPETTO": null, "DATA_CONFERMA": null, "ESITO": "Negativo", "DATA_PRELIEVO": "2022-06-28", "ZONAZIONE": "ZR", "CASI": 1, "LUOGO_DESCRIZIONE": "ABBATTUTI\/CACCIATI", "ANIMALE_INCIDENTATO": "NO", "AREA": 2, "ZONA_RESTRIZIONE": "III" }, "geometry": { "type": "Point", "coordinates": [ 12.410471, 42.00504 ] } },
{ "type": "Feature", "properties": { "NOME_REGIONE": "LAZIO", "NOME_PROVINCIA": "ROMA", "NOME_COMUNE": "ROMA", "SPECIE": "CINGHIALE", "DATA_SOSPETTO": null, "DATA_CONFERMA": null, "ESITO": "Negativo", "DATA_PRELIEVO": "2022-06-28", "ZONAZIONE": "ZR", "CASI": 1, "LUOGO_DESCRIZIONE": "RITROVAMENTO SU SEGNALAZIONE", "ANIMALE_INCIDENTATO": "SI", "AREA": 2, "ZONA_RESTRIZIONE": "LIM" }, "geometry": { "type": "Point", "coordinates": [ 12.386425, 41.736354 ] } },
{ "type": "Feature", "properties": { "NOME_REGIONE": "LAZIO", "NOME_PROVINCIA": "ROMA", "NOME_COMUNE": "ROMA", "SPECIE": "CINGHIALE", "DATA_SOSPETTO": null, "DATA_CONFERMA": null, "ESITO": "Negativo", "DATA_PRELIEVO": "2022-06-28", "ZONAZIONE": "ZR", "CASI": 1, "LUOGO_DESCRIZIONE": "ABBATTUTI\/CACCIATI", "ANIMALE_INCIDENTATO": "NO", "AREA": 2, "ZONA_RESTRIZIONE": "III" }, "geometry": { "type": "Point", "coordinates": [ 12.410471, 42.00504 ] } },
{ "type": "Feature", "properties": { "NOME_REGIONE": "LAZIO", "NOME_PROVINCIA": "ROMA", "NOME_COMUNE": "ROMA", "SPECIE": "SUINO", "DATA_SOSPETTO": null, "DATA_CONFERMA": null, "ESITO": "Negativo", "DATA_PRELIEVO": "2022-06-28", "ZONAZIONE": "ZR", "CASI": 1, "LUOGO_DESCRIZIONE": "ABBATTUTI\/CACCIATI", "ANIMALE_INCIDENTATO": "NO", "AREA": 2, "ZONA_RESTRIZIONE": "III" }, "geometry": { "type": "Point", "coordinates": [ 12.410471, 42.00504 ] } },
{ "type": "Feature", "properties": { "NOME_REGIONE": "LAZIO", "NOME_PROVINCIA": "ROMA", "NOME_COMUNE": "ROMA", "SPECIE": "CINGHIALE", "DATA_SOSPETTO": null, "DATA_CONFERMA": null, "ESITO": "Negativo", "DATA_PRELIEVO": "2022-06-28", "ZONAZIONE": "ZR", "CASI": 1, "LUOGO_DESCRIZIONE": "ABBATTUTI\/CACCIATI", "ANIMALE_INCIDENTATO": "NO", "AREA": 2, "ZONA_RESTRIZIONE": "III" }, "geometry": { "type": "Point", "coordinates": [ 12.410471, 42.00504 ] } },
{ "type": "Feature", "properties": { "NOME_REGIONE": "LAZIO", "NOME_PROVINCIA": "ROMA", "NOME_COMUNE": "BRACCIANO", "SPECIE": "CINGHIALE", "DATA_SOSPETTO": null, "DATA_CONFERMA": null, "ESITO": "Negativo", "DATA_PRELIEVO": "2022-06-28", "ZONAZIONE": "ZR", "CASI": 1, "LUOGO_DESCRIZIONE": "RITROVAMENTO SU SEGNALAZIONE", "ANIMALE_INCIDENTATO": "NON DETERMINATO", "AREA": 2, "ZONA_RESTRIZIONE": "LIM" }, "geometry": { "type": "Point", "coordinates": [ 12.107917, 42.052144 ] } },
{ "type": "Feature", "properties": { "NOME_REGIONE": "LAZIO", "NOME_PROVINCIA": "ROMA", "NOME_COMUNE": "ROMA", "SPECIE": "CINGHIALE", "DATA_SOSPETTO": null, "DATA_CONFERMA": null, "ESITO": "Negativo", "DATA_PRELIEVO": "2022-06-28", "ZONAZIONE": "ZR", "CASI": 1, "LUOGO_DESCRIZIONE": "ABBATTUTI\/CACCIATI", "ANIMALE_INCIDENTATO": "NO", "AREA": 2, "ZONA_RESTRIZIONE": "III" }, "geometry": { "type": "Point", "coordinates": [ 12.410471, 42.00504 ] } },
{ "type": "Feature", "properties": { "NOME_REGIONE": "PIEMONTE", "NOME_PROVINCIA": "CUNEO", "NOME_COMUNE": "RACCONIGI", "SPECIE": "SUINO", "DATA_SOSPETTO": null, "DATA_CONFERMA": null, "ESITO": "Negativo", "DATA_PRELIEVO": "2022-06-28", "ZONAZIONE": "ZR", "CASI": 1, "LUOGO_DESCRIZIONE": "ALLEVAMENTO (BREEDING)", "ANIMALE_INCIDENTATO": "Non determinato", "AREA": 1, "ZONA_RESTRIZIONE": "LIM" }, "geometry": { "type": "Point", "coordinates": [ 7.659693, 44.801389 ] } },
{ "type": "Feature", "properties": { "NOME_REGIONE": "LAZIO", "NOME_PROVINCIA": "ROMA", "NOME_COMUNE": "ROMA", "SPECIE": "CINGHIALE", "DATA_SOSPETTO": null, "DATA_CONFERMA": null, "ESITO": "Negativo", "DATA_PRELIEVO": "2022-06-28", "ZONAZIONE": "ZR", "CASI": 1, "LUOGO_DESCRIZIONE": "ABBATTUTI\/CACCIATI", "ANIMALE_INCIDENTATO": "NO", "AREA": 2, "ZONA_RESTRIZIONE": "III" }, "geometry": { "type": "Point", "coordinates": [ 12.410471, 42.00504 ] } },
{ "type": "Feature", "properties": { "NOME_REGIONE": "LOMBARDIA", "NOME_PROVINCIA": "PAVIA", "NOME_COMUNE": "VILLANTERIO", "SPECIE": "SUINO", "DATA_SOSPETTO": null, "DATA_CONFERMA": null, "ESITO": "Negativo", "DATA_PRELIEVO": "2022-06-28", "ZONAZIONE": "ZR", "CASI": 1, "LUOGO_DESCRIZIONE": "ALLEVAMENTO (BREEDING)", "ANIMALE_INCIDENTATO": "Non determinato", "AREA": 1, "ZONA_RESTRIZIONE": "LIM" }, "geometry": { "type": "Point", "coordinates": [ 9.366998, 45.230402 ] } },
{ "type": "Feature", "properties": { "NOME_REGIONE": "PIEMONTE", "NOME_PROVINCIA": "ALESSANDRIA", "NOME_COMUNE": "BOSIO", "SPECIE": "CINGHIALE", "DATA_SOSPETTO": null, "DATA_CONFERMA": null, "ESITO": "Negativo", "DATA_PRELIEVO": "2022-06-28", "ZONAZIONE": "ZR", "CASI": 1, "LUOGO_DESCRIZIONE": "ABBATTUTI\/CACCIATI", "ANIMALE_INCIDENTATO": "NO", "AREA": 1, "ZONA_RESTRIZIONE": "II" }, "geometry": { "type": "Point", "coordinates": [ 8.782044, 44.564567 ] } },
{ "type": "Feature", "properties": { "NOME_REGIONE": "LAZIO", "NOME_PROVINCIA": "ROMA", "NOME_COMUNE": "ROMA", "SPECIE": "CINGHIALE", "DATA_SOSPETTO": null, "DATA_CONFERMA": null, "ESITO": "Negativo", "DATA_PRELIEVO": "2022-06-28", "ZONAZIONE": "ZR", "CASI": 1, "LUOGO_DESCRIZIONE": "ABBATTUTI\/CACCIATI", "ANIMALE_INCIDENTATO": "NO", "AREA": 2, "ZONA_RESTRIZIONE": "III" }, "geometry": { "type": "Point", "coordinates": [ 12.410471, 42.00504 ] } },
{ "type": "Feature", "properties": { "NOME_REGIONE": "LAZIO", "NOME_PROVINCIA": "ROMA", "NOME_COMUNE": "ROMA", "SPECIE": "CINGHIALE", "DATA_SOSPETTO": null, "DATA_CONFERMA": null, "ESITO": "Negativo", "DATA_PRELIEVO": "2022-06-28", "ZONAZIONE": "ZR", "CASI": 1, "LUOGO_DESCRIZIONE": "ABBATTUTI\/CACCIATI", "ANIMALE_INCIDENTATO": "NO", "AREA": 2, "ZONA_RESTRIZIONE": "III" }, "geometry": { "type": "Point", "coordinates": [ 12.410471, 42.00504 ] } },
{ "type": "Feature", "properties": { "NOME_REGIONE": "LAZIO", "NOME_PROVINCIA": "ROMA", "NOME_COMUNE": "ROMA", "SPECIE": "CINGHIALE", "DATA_SOSPETTO": null, "DATA_CONFERMA": null, "ESITO": "Negativo", "DATA_PRELIEVO": "2022-06-28", "ZONAZIONE": "ZR", "CASI": 1, "LUOGO_DESCRIZIONE": "RITROVAMENTO SU SEGNALAZIONE", "ANIMALE_INCIDENTATO": "SI", "AREA": 2, "ZONA_RESTRIZIONE": "III" }, "geometry": { "type": "Point", "coordinates": [ 12.44179, 41.93258 ] } },
{ "type": "Feature", "properties": { "NOME_REGIONE": "PIEMONTE", "NOME_PROVINCIA": "ALESSANDRIA", "NOME_COMUNE": "BOSIO", "SPECIE": "CINGHIALE", "DATA_SOSPETTO": null, "DATA_CONFERMA": null, "ESITO": "Negativo", "DATA_PRELIEVO": "2022-06-28", "ZONAZIONE": "ZR", "CASI": 1, "LUOGO_DESCRIZIONE": "ABBATTUTI\/CACCIATI", "ANIMALE_INCIDENTATO": "NO", "AREA": 1, "ZONA_RESTRIZIONE": "II" }, "geometry": { "type": "Point", "coordinates": [ 8.781808, 44.564781 ] } },
{ "type": "Feature", "properties": { "NOME_REGIONE": "LAZIO", "NOME_PROVINCIA": "ROMA", "NOME_COMUNE": "ROMA", "SPECIE": "CINGHIALE", "DATA_SOSPETTO": null, "DATA_CONFERMA": null, "ESITO": "Negativo", "DATA_PRELIEVO": "2022-06-28", "ZONAZIONE": "ZR", "CASI": 1, "LUOGO_DESCRIZIONE": "ABBATTUTI\/CACCIATI", "ANIMALE_INCIDENTATO": "NO", "AREA": 2, "ZONA_RESTRIZIONE": "III" }, "geometry": { "type": "Point", "coordinates": [ 12.410471, 42.00504 ] } },
{ "type": "Feature", "properties": { "NOME_REGIONE": "LIGURIA", "NOME_PROVINCIA": "GENOVA", "NOME_COMUNE": "RAPALLO", "SPECIE": "CINGHIALE", "DATA_SOSPETTO": null, "DATA_CONFERMA": null, "ESITO": "Negativo", "DATA_PRELIEVO": "2022-06-28", "ZONAZIONE": "ZR", "CASI": 1, "LUOGO_DESCRIZIONE": "RITROVAMENTO SU SEGNALAZIONE", "ANIMALE_INCIDENTATO": "SI", "AREA": 1, "ZONA_RESTRIZIONE": "I" }, "geometry": { "type": "Point", "coordinates": [ 9.20491, 44.360185 ] } },
{ "type": "Feature", "properties": { "NOME_REGIONE": "LOMBARDIA", "NOME_PROVINCIA": "PAVIA", "NOME_COMUNE": "TROMELLO", "SPECIE": "SUINO", "DATA_SOSPETTO": null, "DATA_CONFERMA": null, "ESITO": "Negativo", "DATA_PRELIEVO": "2022-06-28", "ZONAZIONE": "ZR", "CASI": 1, "LUOGO_DESCRIZIONE": "ALLEVAMENTO (BREEDING)", "ANIMALE_INCIDENTATO": "Non determinato", "AREA": 1, "ZONA_RESTRIZIONE": "LIM" }, "geometry": { "type": "Point", "coordinates": [ 8.878522, 45.223777 ] } },
{ "type": "Feature", "properties": { "NOME_REGIONE": "LIGURIA", "NOME_PROVINCIA": "GENOVA", "NOME_COMUNE": "RAPALLO", "SPECIE": "CINGHIALE", "DATA_SOSPETTO": null, "DATA_CONFERMA": null, "ESITO": "Negativo", "DATA_PRELIEVO": "2022-06-28", "ZONAZIONE": "ZR", "CASI": 1, "LUOGO_DESCRIZIONE": "RITROVAMENTO SU SEGNALAZIONE", "ANIMALE_INCIDENTATO": "NO", "AREA": 1, "ZONA_RESTRIZIONE": "I" }, "geometry": { "type": "Point", "coordinates": [ 9.178399, 44.359456 ] } },
{ "type": "Feature", "properties": { "NOME_REGIONE": "ABRUZZO", "NOME_PROVINCIA": "L'AQUILA", "NOME_COMUNE": "SCURCOLA MARSICANA", "SPECIE": "CINGHIALE", "DATA_SOSPETTO": null, "DATA_CONFERMA": null, "ESITO": "Negativo", "DATA_PRELIEVO": "2022-06-28", "ZONAZIONE": "ZP", "CASI": 1, "LUOGO_DESCRIZIONE": "RITROVAMENTO SU SEGNALAZIONE", "ANIMALE_INCIDENTATO": "NO", "AREA": 3, "ZONA_RESTRIZIONE": "LIM" }, "geometry": { "type": "Point", "coordinates": [ 13.328916, 42.06313 ] } },
{ "type": "Feature", "properties": { "NOME_REGIONE": "PIEMONTE", "NOME_PROVINCIA": "ALESSANDRIA", "NOME_COMUNE": "BOSIO", "SPECIE": "CINGHIALE", "DATA_SOSPETTO": null, "DATA_CONFERMA": null, "ESITO": "Negativo", "DATA_PRELIEVO": "2022-06-28", "ZONAZIONE": "ZR", "CASI": 1, "LUOGO_DESCRIZIONE": "ABBATTUTI\/CACCIATI", "ANIMALE_INCIDENTATO": "NO", "AREA": 1, "ZONA_RESTRIZIONE": "II" }, "geometry": { "type": "Point", "coordinates": [ 8.78198, 44.564628 ] } },
{ "type": "Feature", "properties": { "NOME_REGIONE": "LOMBARDIA", "NOME_PROVINCIA": "PAVIA", "NOME_COMUNE": "ALBUZZANO", "SPECIE": "SUINO", "DATA_SOSPETTO": null, "DATA_CONFERMA": null, "ESITO": "Negativo", "DATA_PRELIEVO": "2022-06-28", "ZONAZIONE": "ZR", "CASI": 1, "LUOGO_DESCRIZIONE": "ALLEVAMENTO (BREEDING)", "ANIMALE_INCIDENTATO": "Non determinato", "AREA": 1, "ZONA_RESTRIZIONE": "LIM" }, "geometry": { "type": "Point", "coordinates": [ 9.282114, 45.167155 ] } },
{ "type": "Feature", "properties": { "NOME_REGIONE": "LIGURIA", "NOME_PROVINCIA": "GENOVA", "NOME_COMUNE": "BOGLIASCO", "SPECIE": "CINGHIALE", "DATA_SOSPETTO": null, "DATA_CONFERMA": null, "ESITO": "Negativo", "DATA_PRELIEVO": "2022-06-27", "ZONAZIONE": "ZR", "CASI": 1, "LUOGO_DESCRIZIONE": "ABBATTUTI\/CACCIATI", "ANIMALE_INCIDENTATO": "NO", "AREA": 1, "ZONA_RESTRIZIONE": "II" }, "geometry": { "type": "Point", "coordinates": [ 9.071747, 44.38841 ] } },
{ "type": "Feature", "properties": { "NOME_REGIONE": "PIEMONTE", "NOME_PROVINCIA": "CUNEO", "NOME_COMUNE": "RACCONIGI", "SPECIE": "SUINO", "DATA_SOSPETTO": null, "DATA_CONFERMA": null, "ESITO": "Negativo", "DATA_PRELIEVO": "2022-06-27", "ZONAZIONE": "ZR", "CASI": 1, "LUOGO_DESCRIZIONE": "ALLEVAMENTO (BREEDING)", "ANIMALE_INCIDENTATO": "Non determinato", "AREA": 1, "ZONA_RESTRIZIONE": "LIM" }, "geometry": { "type": "Point", "coordinates": [ 7.666699, 44.815524 ] } },
{ "type": "Feature", "properties": { "NOME_REGIONE": "LOMBARDIA", "NOME_PROVINCIA": "PAVIA", "NOME_COMUNE": "REDAVALLE", "SPECIE": "CINGHIALE", "DATA_SOSPETTO": null, "DATA_CONFERMA": null, "ESITO": "Negativo", "DATA_PRELIEVO": "2022-06-27", "ZONAZIONE": "ZR", "CASI": 1, "LUOGO_DESCRIZIONE": "RITROVAMENTO SU SEGNALAZIONE", "ANIMALE_INCIDENTATO": "SI", "AREA": 1, "ZONA_RESTRIZIONE": "LIM" }, "geometry": { "type": "Point", "coordinates": [ 9.202269, 45.035645 ] } },
{ "type": "Feature", "properties": { "NOME_REGIONE": "LOMBARDIA", "NOME_PROVINCIA": "PAVIA", "NOME_COMUNE": "BASCAPE'", "SPECIE": "SUINO", "DATA_SOSPETTO": null, "DATA_CONFERMA": null, "ESITO": "Negativo", "DATA_PRELIEVO": "2022-06-27", "ZONAZIONE": "ZR", "CASI": 1, "LUOGO_DESCRIZIONE": "ALLEVAMENTO (BREEDING)", "ANIMALE_INCIDENTATO": "Non determinato", "AREA": 1, "ZONA_RESTRIZIONE": "LIM" }, "geometry": { "type": "Point", "coordinates": [ 9.350643, 45.299143 ] } },
{ "type": "Feature", "properties": { "NOME_REGIONE": "LAZIO", "NOME_PROVINCIA": "ROMA", "NOME_COMUNE": "ROMA", "SPECIE": "CINGHIALE", "DATA_SOSPETTO": null, "DATA_CONFERMA": null, "ESITO": "Negativo", "DATA_PRELIEVO": "2022-06-27", "ZONAZIONE": "ZR", "CASI": 1, "LUOGO_DESCRIZIONE": "RITROVAMENTO SU SEGNALAZIONE", "ANIMALE_INCIDENTATO": "NO", "AREA": 2, "ZONA_RESTRIZIONE": "III" }, "geometry": { "type": "Point", "coordinates": [ 12.45881, 41.975261 ] } },
{ "type": "Feature", "properties": { "NOME_REGIONE": "LAZIO", "NOME_PROVINCIA": "ROMA", "NOME_COMUNE": "ROMA", "SPECIE": "CINGHIALE", "DATA_SOSPETTO": null, "DATA_CONFERMA": null, "ESITO": "Negativo", "DATA_PRELIEVO": "2022-06-27", "ZONAZIONE": "ZR", "CASI": 1, "LUOGO_DESCRIZIONE": "RITROVAMENTO SU SEGNALAZIONE", "ANIMALE_INCIDENTATO": "SI", "AREA": 2, "ZONA_RESTRIZIONE": "III" }, "geometry": { "type": "Point", "coordinates": [ 12.31346, 41.89949 ] } },
{ "type": "Feature", "properties": { "NOME_REGIONE": "SARDEGNA", "NOME_PROVINCIA": "SASSARI", "NOME_COMUNE": "OZIERI", "SPECIE": "SUINO", "DATA_SOSPETTO": null, "DATA_CONFERMA": null, "ESITO": "Negativo", "DATA_PRELIEVO": "2022-06-27", "ZONAZIONE": "ZR", "CASI": 1, "LUOGO_DESCRIZIONE": "ALLEVAMENTO (BREEDING)", "ANIMALE_INCIDENTATO": "Non determinato", "AREA": 4, "ZONA_RESTRIZIONE": "III" }, "geometry": { "type": "Point", "coordinates": [ 8.963921, 40.642578 ] } },
{ "type": "Feature", "properties": { "NOME_REGIONE": "LIGURIA", "NOME_PROVINCIA": "GENOVA", "NOME_COMUNE": "BARGAGLI", "SPECIE": "CINGHIALE", "DATA_SOSPETTO": null, "DATA_CONFERMA": null, "ESITO": "Negativo", "DATA_PRELIEVO": "2022-06-27", "ZONAZIONE": "ZR", "CASI": 1, "LUOGO_DESCRIZIONE": "RITROVAMENTO SU SEGNALAZIONE", "ANIMALE_INCIDENTATO": "NO", "AREA": 1, "ZONA_RESTRIZIONE": "II" }, "geometry": { "type": "Point", "coordinates": [ 9.092657, 44.449074 ] } },
{ "type": "Feature", "properties": { "NOME_REGIONE": "SARDEGNA", "NOME_PROVINCIA": "ORISTANO", "NOME_COMUNE": "TERRALBA", "SPECIE": "SUINO", "DATA_SOSPETTO": null, "DATA_CONFERMA": null, "ESITO": "Negativo", "DATA_PRELIEVO": "2022-06-27", "ZONAZIONE": "ZR", "CASI": 1, "LUOGO_DESCRIZIONE": "ALLEVAMENTO (BREEDING)", "ANIMALE_INCIDENTATO": "Non determinato", "AREA": 4, "ZONA_RESTRIZIONE": "III" }, "geometry": { "type": "Point", "coordinates": [ 8.609533, 39.73798 ] } },
{ "type": "Feature", "properties": { "NOME_REGIONE": "PIEMONTE", "NOME_PROVINCIA": "CUNEO", "NOME_COMUNE": "SALUZZO", "SPECIE": "SUINO", "DATA_SOSPETTO": null, "DATA_CONFERMA": null, "ESITO": "Negativo", "DATA_PRELIEVO": "2022-06-27", "ZONAZIONE": "ZR", "CASI": 1, "LUOGO_DESCRIZIONE": "ALLEVAMENTO (BREEDING)", "ANIMALE_INCIDENTATO": "Non determinato", "AREA": 1, "ZONA_RESTRIZIONE": "LIM" }, "geometry": { "type": "Point", "coordinates": [ 7.515779, 44.697135 ] } },
{ "type": "Feature", "properties": { "NOME_REGIONE": "LIGURIA", "NOME_PROVINCIA": "GENOVA", "NOME_COMUNE": "MIGNANEGO", "SPECIE": "CINGHIALE", "DATA_SOSPETTO": "2022-06-27", "DATA_CONFERMA": "2022-06-28", "ESITO": "Positivo", "DATA_PRELIEVO": "2022-06-27", "ZONAZIONE": "ZR", "CASI": 1, "LUOGO_DESCRIZIONE": "RITROVAMENTO SU SEGNALAZIONE", "ANIMALE_INCIDENTATO": "NON DETERMINATO", "AREA": 1, "ZONA_RESTRIZIONE": "II" }, "geometry": { "type": "Point", "coordinates": [ 8.94404, 44.55769 ] } },
{ "type": "Feature", "properties": { "NOME_REGIONE": "SARDEGNA", "NOME_PROVINCIA": "SUD SARDEGNA", "NOME_COMUNE": "GONNESA", "SPECIE": "CINGHIALE", "DATA_SOSPETTO": null, "DATA_CONFERMA": null, "ESITO": "Negativo", "DATA_PRELIEVO": "2022-06-27", "ZONAZIONE": "ZR", "CASI": 1, "LUOGO_DESCRIZIONE": "RITROVAMENTO SU SEGNALAZIONE", "ANIMALE_INCIDENTATO": "SI", "AREA": 4, "ZONA_RESTRIZIONE": "III" }, "geometry": { "type": "Point", "coordinates": [ 8.45005, 39.27418 ] } },
{ "type": "Feature", "properties": { "NOME_REGIONE": "PIEMONTE", "NOME_PROVINCIA": "ALESSANDRIA", "NOME_COMUNE": "MASIO", "SPECIE": "SUINO", "DATA_SOSPETTO": null, "DATA_CONFERMA": null, "ESITO": "Negativo", "DATA_PRELIEVO": "2022-06-27", "ZONAZIONE": "ZR", "CASI": 1, "LUOGO_DESCRIZIONE": "ALLEVAMENTO (BREEDING)", "ANIMALE_INCIDENTATO": "Non determinato", "AREA": 1, "ZONA_RESTRIZIONE": "LIM" }, "geometry": { "type": "Point", "coordinates": [ 8.451836, 44.864002 ] } },
{ "type": "Feature", "properties": { "NOME_REGIONE": "SARDEGNA", "NOME_PROVINCIA": "SASSARI", "NOME_COMUNE": "PADRU", "SPECIE": "SUINO", "DATA_SOSPETTO": null, "DATA_CONFERMA": null, "ESITO": "Negativo", "DATA_PRELIEVO": "2022-06-27", "ZONAZIONE": "ZR", "CASI": 1, "LUOGO_DESCRIZIONE": "ALLEVAMENTO (BREEDING)", "ANIMALE_INCIDENTATO": "Non determinato", "AREA": 4, "ZONA_RESTRIZIONE": "III" }, "geometry": { "type": "Point", "coordinates": [ 9.54222, 40.74771 ] } },
{ "type": "Feature", "properties": { "NOME_REGIONE": "SARDEGNA", "NOME_PROVINCIA": "SUD SARDEGNA", "NOME_COMUNE": "GENONI", "SPECIE": "SUINO", "DATA_SOSPETTO": null, "DATA_CONFERMA": null, "ESITO": "Negativo", "DATA_PRELIEVO": "2022-06-27", "ZONAZIONE": "ZR", "CASI": 1, "LUOGO_DESCRIZIONE": "ALLEVAMENTO (BREEDING)", "ANIMALE_INCIDENTATO": "Non determinato", "AREA": 4, "ZONA_RESTRIZIONE": "III" }, "geometry": { "type": "Point", "coordinates": [ 8.98961, 39.80449 ] } },
{ "type": "Feature", "properties": { "NOME_REGIONE": "LIGURIA", "NOME_PROVINCIA": "GENOVA", "NOME_COMUNE": "SERRA RICCO'", "SPECIE": "CINGHIALE", "DATA_SOSPETTO": null, "DATA_CONFERMA": null, "ESITO": "Negativo", "DATA_PRELIEVO": "2022-06-27", "ZONAZIONE": "ZR", "CASI": 1, "LUOGO_DESCRIZIONE": "RITROVAMENTO SU SEGNALAZIONE", "ANIMALE_INCIDENTATO": "NO", "AREA": 1, "ZONA_RESTRIZIONE": "II" }, "geometry": { "type": "Point", "coordinates": [ 8.95702, 44.51715 ] } },
{ "type": "Feature", "properties": { "NOME_REGIONE": "LIGURIA", "NOME_PROVINCIA": "GENOVA", "NOME_COMUNE": "SANT'OLCESE", "SPECIE": "CINGHIALE", "DATA_SOSPETTO": null, "DATA_CONFERMA": null, "ESITO": "Negativo", "DATA_PRELIEVO": "2022-06-27", "ZONAZIONE": "ZR", "CASI": 1, "LUOGO_DESCRIZIONE": "RITROVAMENTO SU SEGNALAZIONE", "ANIMALE_INCIDENTATO": "NO", "AREA": 1, "ZONA_RESTRIZIONE": "II" }, "geometry": { "type": "Point", "coordinates": [ 8.92209, 44.48199 ] } },
{ "type": "Feature", "properties": { "NOME_REGIONE": "LIGURIA", "NOME_PROVINCIA": "GENOVA", "NOME_COMUNE": "BARGAGLI", "SPECIE": "CINGHIALE", "DATA_SOSPETTO": null, "DATA_CONFERMA": null, "ESITO": "Negativo", "DATA_PRELIEVO": "2022-06-27", "ZONAZIONE": "ZR", "CASI": 1, "LUOGO_DESCRIZIONE": "RITROVAMENTO SU SEGNALAZIONE", "ANIMALE_INCIDENTATO": "SI", "AREA": 1, "ZONA_RESTRIZIONE": "II" }, "geometry": { "type": "Point", "coordinates": [ 9.091856, 44.453942 ] } },
{ "type": "Feature", "properties": { "NOME_REGIONE": "PIEMONTE", "NOME_PROVINCIA": "ALESSANDRIA", "NOME_COMUNE": "MASIO", "SPECIE": "SUINO", "DATA_SOSPETTO": null, "DATA_CONFERMA": null, "ESITO": "Negativo", "DATA_PRELIEVO": "2022-06-27", "ZONAZIONE": "ZR", "CASI": 1, "LUOGO_DESCRIZIONE": "ALLEVAMENTO (BREEDING)", "ANIMALE_INCIDENTATO": "Non determinato", "AREA": 1, "ZONA_RESTRIZIONE": "LIM" }, "geometry": { "type": "Point", "coordinates": [ 8.451836, 44.864002 ] } },
{ "type": "Feature", "properties": { "NOME_REGIONE": "LOMBARDIA", "NOME_PROVINCIA": "PAVIA", "NOME_COMUNE": "GARLASCO", "SPECIE": "SUINO", "DATA_SOSPETTO": null, "DATA_CONFERMA": null, "ESITO": "Negativo", "DATA_PRELIEVO": "2022-06-27", "ZONAZIONE": "ZR", "CASI": 1, "LUOGO_DESCRIZIONE": "ALLEVAMENTO (BREEDING)", "ANIMALE_INCIDENTATO": "Non determinato", "AREA": 1, "ZONA_RESTRIZIONE": "LIM" }, "geometry": { "type": "Point", "coordinates": [ 8.921435, 45.222618 ] } },
{ "type": "Feature", "properties": { "NOME_REGIONE": "LIGURIA", "NOME_PROVINCIA": "GENOVA", "NOME_COMUNE": "CASELLA", "SPECIE": "CINGHIALE", "DATA_SOSPETTO": null, "DATA_CONFERMA": null, "ESITO": "Negativo", "DATA_PRELIEVO": "2022-06-27", "ZONAZIONE": "ZR", "CASI": 1, "LUOGO_DESCRIZIONE": "RITROVAMENTO SU SEGNALAZIONE", "ANIMALE_INCIDENTATO": "NO", "AREA": 1, "ZONA_RESTRIZIONE": "II" }, "geometry": { "type": "Point", "coordinates": [ 8.99839, 44.531601 ] } },
{ "type": "Feature", "properties": { "NOME_REGIONE": "LIGURIA", "NOME_PROVINCIA": "GENOVA", "NOME_COMUNE": "GENOVA", "SPECIE": "CINGHIALE", "DATA_SOSPETTO": null, "DATA_CONFERMA": null, "ESITO": "Negativo", "DATA_PRELIEVO": "2022-06-27", "ZONAZIONE": "ZR", "CASI": 1, "LUOGO_DESCRIZIONE": "RITROVAMENTO SU SEGNALAZIONE", "ANIMALE_INCIDENTATO": "SI", "AREA": 1, "ZONA_RESTRIZIONE": "II" }, "geometry": { "type": "Point", "coordinates": [ 8.985984, 44.460844 ] } },
{ "type": "Feature", "properties": { "NOME_REGIONE": "PIEMONTE", "NOME_PROVINCIA": "ALESSANDRIA", "NOME_COMUNE": "BORGHETTO DI BORBERA", "SPECIE": "CINGHIALE", "DATA_SOSPETTO": null, "DATA_CONFERMA": null, "ESITO": "Negativo", "DATA_PRELIEVO": "2022-06-27", "ZONAZIONE": "ZR", "CASI": 1, "LUOGO_DESCRIZIONE": "RITROVAMENTO SU SEGNALAZIONE", "ANIMALE_INCIDENTATO": "SI", "AREA": 1, "ZONA_RESTRIZIONE": "II" }, "geometry": { "type": "Point", "coordinates": [ 8.96955, 44.731846 ] } },
{ "type": "Feature", "properties": { "NOME_REGIONE": "PIEMONTE", "NOME_PROVINCIA": "CUNEO", "NOME_COMUNE": "RACCONIGI", "SPECIE": "SUINO", "DATA_SOSPETTO": null, "DATA_CONFERMA": null, "ESITO": "Negativo", "DATA_PRELIEVO": "2022-06-27", "ZONAZIONE": "ZR", "CASI": 1, "LUOGO_DESCRIZIONE": "ALLEVAMENTO (BREEDING)", "ANIMALE_INCIDENTATO": "Non determinato", "AREA": 1, "ZONA_RESTRIZIONE": "LIM" }, "geometry": { "type": "Point", "coordinates": [ 7.707842, 44.766113 ] } },
{ "type": "Feature", "properties": { "NOME_REGIONE": "LAZIO", "NOME_PROVINCIA": "RIETI", "NOME_COMUNE": "CITTAREALE", "SPECIE": "CINGHIALE", "DATA_SOSPETTO": null, "DATA_CONFERMA": null, "ESITO": "Negativo", "DATA_PRELIEVO": "2022-06-27", "ZONAZIONE": "ZP", "CASI": 1, "LUOGO_DESCRIZIONE": "RITROVAMENTO SU SEGNALAZIONE", "ANIMALE_INCIDENTATO": "SI", "AREA": 3, "ZONA_RESTRIZIONE": "LIM" }, "geometry": { "type": "Point", "coordinates": [ 13.152116, 42.574922 ] } },
{ "type": "Feature", "properties": { "NOME_REGIONE": "LIGURIA", "NOME_PROVINCIA": "GENOVA", "NOME_COMUNE": "GENOVA", "SPECIE": "CINGHIALE", "DATA_SOSPETTO": null, "DATA_CONFERMA": null, "ESITO": "Negativo", "DATA_PRELIEVO": "2022-06-27", "ZONAZIONE": "ZR", "CASI": 1, "LUOGO_DESCRIZIONE": "ABBATTUTI\/CACCIATI", "ANIMALE_INCIDENTATO": "NO", "AREA": 1, "ZONA_RESTRIZIONE": "II" }, "geometry": { "type": "Point", "coordinates": [ 9.029576, 44.384741 ] } },
{ "type": "Feature", "properties": { "NOME_REGIONE": "LAZIO", "NOME_PROVINCIA": "ROMA", "NOME_COMUNE": "CASTELNUOVO DI PORTO", "SPECIE": "CINGHIALE", "DATA_SOSPETTO": null, "DATA_CONFERMA": null, "ESITO": "Negativo", "DATA_PRELIEVO": "2022-06-27", "ZONAZIONE": "ZR", "CASI": 1, "LUOGO_DESCRIZIONE": "RITROVAMENTO SU SEGNALAZIONE", "ANIMALE_INCIDENTATO": "SI", "AREA": 2, "ZONA_RESTRIZIONE": "I" }, "geometry": { "type": "Point", "coordinates": [ 12.528539, 42.104927 ] } },
{ "type": "Feature", "properties": { "NOME_REGIONE": "PIEMONTE", "NOME_PROVINCIA": "ASTI", "NOME_COMUNE": "COCCONATO", "SPECIE": "CINGHIALE", "DATA_SOSPETTO": null, "DATA_CONFERMA": null, "ESITO": "Negativo", "DATA_PRELIEVO": "2022-06-27", "ZONAZIONE": "ZR", "CASI": 1, "LUOGO_DESCRIZIONE": "RITROVAMENTO SU SEGNALAZIONE", "ANIMALE_INCIDENTATO": "NO", "AREA": 1, "ZONA_RESTRIZIONE": "LIM" }, "geometry": { "type": "Point", "coordinates": [ 8.051694, 45.092946 ] } },
{ "type": "Feature", "properties": { "NOME_REGIONE": "LAZIO", "NOME_PROVINCIA": "ROMA", "NOME_COMUNE": "ROMA", "SPECIE": "CINGHIALE", "DATA_SOSPETTO": "2022-06-28", "DATA_CONFERMA": "2022-06-28", "ESITO": "Positivo", "DATA_PRELIEVO": "2022-06-27", "ZONAZIONE": "ZR", "CASI": 1, "LUOGO_DESCRIZIONE": "RITROVAMENTO SU SEGNALAZIONE", "ANIMALE_INCIDENTATO": "NO", "AREA": 2, "ZONA_RESTRIZIONE": "III" }, "geometry": { "type": "Point", "coordinates": [ 12.41262, 41.96225 ] } },
{ "type": "Feature", "properties": { "NOME_REGIONE": "SARDEGNA", "NOME_PROVINCIA": "SASSARI", "NOME_COMUNE": "OSCHIRI", "SPECIE": "CINGHIALE", "DATA_SOSPETTO": null, "DATA_CONFERMA": null, "ESITO": "Negativo", "DATA_PRELIEVO": "2022-06-26", "ZONAZIONE": "ZR", "CASI": 1, "LUOGO_DESCRIZIONE": "RITROVAMENTO SU SEGNALAZIONE", "ANIMALE_INCIDENTATO": "SI", "AREA": 4, "ZONA_RESTRIZIONE": "III" }, "geometry": { "type": "Point", "coordinates": [ 9.0332, 40.6878 ] } },
{ "type": "Feature", "properties": { "NOME_REGIONE": "ABRUZZO", "NOME_PROVINCIA": "L'AQUILA", "NOME_COMUNE": "CELANO", "SPECIE": "CINGHIALE", "DATA_SOSPETTO": null, "DATA_CONFERMA": null, "ESITO": "Negativo", "DATA_PRELIEVO": "2022-06-26", "ZONAZIONE": "ZP", "CASI": 1, "LUOGO_DESCRIZIONE": "RITROVAMENTO SU SEGNALAZIONE", "ANIMALE_INCIDENTATO": "NON DETERMINATO", "AREA": 3, "ZONA_RESTRIZIONE": "LIM" }, "geometry": { "type": "Point", "coordinates": [ 13.523022, 42.089895 ] } },
{ "type": "Feature", "properties": { "NOME_REGIONE": "SARDEGNA", "NOME_PROVINCIA": "SASSARI", "NOME_COMUNE": "OSCHIRI", "SPECIE": "CINGHIALE", "DATA_SOSPETTO": null, "DATA_CONFERMA": null, "ESITO": "Negativo", "DATA_PRELIEVO": "2022-06-26", "ZONAZIONE": "ZR", "CASI": 1, "LUOGO_DESCRIZIONE": "RITROVAMENTO SU SEGNALAZIONE", "ANIMALE_INCIDENTATO": "SI", "AREA": 4, "ZONA_RESTRIZIONE": "III" }, "geometry": { "type": "Point", "coordinates": [ 9.0332, 40.6878 ] } },
{ "type": "Feature", "properties": { "NOME_REGIONE": "SARDEGNA", "NOME_PROVINCIA": "NUORO", "NOME_COMUNE": "ORUNE", "SPECIE": "CINGHIALE", "DATA_SOSPETTO": null, "DATA_CONFERMA": null, "ESITO": "Negativo", "DATA_PRELIEVO": "2022-06-26", "ZONAZIONE": "ZR", "CASI": 1, "LUOGO_DESCRIZIONE": "RITROVAMENTO SU SEGNALAZIONE", "ANIMALE_INCIDENTATO": "SI", "AREA": 4, "ZONA_RESTRIZIONE": "III" }, "geometry": { "type": "Point", "coordinates": [ 9.322128, 40.414226 ] } },
{ "type": "Feature", "properties": { "NOME_REGIONE": "SARDEGNA", "NOME_PROVINCIA": "SASSARI", "NOME_COMUNE": "TEMPIO PAUSANIA", "SPECIE": "CINGHIALE", "DATA_SOSPETTO": null, "DATA_CONFERMA": null, "ESITO": "Negativo", "DATA_PRELIEVO": "2022-06-26", "ZONAZIONE": "ZR", "CASI": 1, "LUOGO_DESCRIZIONE": "RITROVAMENTO SU SEGNALAZIONE", "ANIMALE_INCIDENTATO": "SI", "AREA": 4, "ZONA_RESTRIZIONE": "III" }, "geometry": { "type": "Point", "coordinates": [ 9.314178, 41.15299 ] } },
{ "type": "Feature", "properties": { "NOME_REGIONE": "SARDEGNA", "NOME_PROVINCIA": "SASSARI", "NOME_COMUNE": "ARZACHENA", "SPECIE": "CINGHIALE", "DATA_SOSPETTO": null, "DATA_CONFERMA": null, "ESITO": "Negativo", "DATA_PRELIEVO": "2022-06-26", "ZONAZIONE": "ZR", "CASI": 1, "LUOGO_DESCRIZIONE": "RITROVAMENTO SU SEGNALAZIONE", "ANIMALE_INCIDENTATO": "SI", "AREA": 4, "ZONA_RESTRIZIONE": "III" }, "geometry": { "type": "Point", "coordinates": [ 9.319706, 41.06022 ] } },
{ "type": "Feature", "properties": { "NOME_REGIONE": "SARDEGNA", "NOME_PROVINCIA": "SUD SARDEGNA", "NOME_COMUNE": "SIURGUS DONIGALA", "SPECIE": "SUINO", "DATA_SOSPETTO": null, "DATA_CONFERMA": null, "ESITO": "Negativo", "DATA_PRELIEVO": "2022-06-26", "ZONAZIONE": "ZR", "CASI": 1, "LUOGO_DESCRIZIONE": "ALLEVAMENTO (BREEDING)", "ANIMALE_INCIDENTATO": "Non determinato", "AREA": 4, "ZONA_RESTRIZIONE": "III" }, "geometry": { "type": "Point", "coordinates": [ 9.213117, 39.606086 ] } },
{ "type": "Feature", "properties": { "NOME_REGIONE": "LAZIO", "NOME_PROVINCIA": "ROMA", "NOME_COMUNE": "SUBIACO", "SPECIE": "CINGHIALE", "DATA_SOSPETTO": null, "DATA_CONFERMA": null, "ESITO": "Negativo", "DATA_PRELIEVO": "2022-06-25", "ZONAZIONE": "ZR", "CASI": 1, "LUOGO_DESCRIZIONE": "RITROVAMENTO SU SEGNALAZIONE", "ANIMALE_INCIDENTATO": "NON DETERMINATO", "AREA": 2, "ZONA_RESTRIZIONE": "LIM" }, "geometry": { "type": "Point", "coordinates": [ 13.094932, 41.943811 ] } },
{ "type": "Feature", "properties": { "NOME_REGIONE": "LAZIO", "NOME_PROVINCIA": "ROMA", "NOME_COMUNE": "ROMA", "SPECIE": "CINGHIALE", "DATA_SOSPETTO": "2022-06-25", "DATA_CONFERMA": "2022-06-28", "ESITO": "Positivo", "DATA_PRELIEVO": "2022-06-25", "ZONAZIONE": "ZR", "CASI": 1, "LUOGO_DESCRIZIONE": "RITROVAMENTO SU SEGNALAZIONE", "ANIMALE_INCIDENTATO": "NO", "AREA": 2, "ZONA_RESTRIZIONE": "III" }, "geometry": { "type": "Point", "coordinates": [ 12.4127, 41.96221 ] } },
{ "type": "Feature", "properties": { "NOME_REGIONE": "PIEMONTE", "NOME_PROVINCIA": "ALESSANDRIA", "NOME_COMUNE": "OVADA", "SPECIE": "CINGHIALE", "DATA_SOSPETTO": null, "DATA_CONFERMA": null, "ESITO": "Negativo", "DATA_PRELIEVO": "2022-06-25", "ZONAZIONE": "ZR", "CASI": 1, "LUOGO_DESCRIZIONE": "RICERCA ATTIVA", "ANIMALE_INCIDENTATO": "NO", "AREA": 1, "ZONA_RESTRIZIONE": "II" }, "geometry": { "type": "Point", "coordinates": [ 8.654632, 44.656492 ] } },
{ "type": "Feature", "properties": { "NOME_REGIONE": "SARDEGNA", "NOME_PROVINCIA": "SASSARI", "NOME_COMUNE": "ALGHERO", "SPECIE": "CINGHIALE", "DATA_SOSPETTO": null, "DATA_CONFERMA": null, "ESITO": "Negativo", "DATA_PRELIEVO": "2022-06-25", "ZONAZIONE": "ZR", "CASI": 1, "LUOGO_DESCRIZIONE": "RITROVAMENTO SU SEGNALAZIONE", "ANIMALE_INCIDENTATO": "SI", "AREA": 4, "ZONA_RESTRIZIONE": "III" }, "geometry": { "type": "Point", "coordinates": [ 8.2352, 40.5957 ] } },
{ "type": "Feature", "properties": { "NOME_REGIONE": "LAZIO", "NOME_PROVINCIA": "ROMA", "NOME_COMUNE": "ROMA", "SPECIE": "CINGHIALE", "DATA_SOSPETTO": null, "DATA_CONFERMA": null, "ESITO": "Negativo", "DATA_PRELIEVO": "2022-06-25", "ZONAZIONE": "ZR", "CASI": 1, "LUOGO_DESCRIZIONE": "RITROVAMENTO SU SEGNALAZIONE", "ANIMALE_INCIDENTATO": "NO", "AREA": 2, "ZONA_RESTRIZIONE": "III" }, "geometry": { "type": "Point", "coordinates": [ 12.45254, 41.94206 ] } },
{ "type": "Feature", "properties": { "NOME_REGIONE": "Emilia Romagna", "NOME_PROVINCIA": "PIACENZA", "NOME_COMUNE": "GAZZOLA", "SPECIE": "CINGHIALE", "DATA_SOSPETTO": null, "DATA_CONFERMA": null, "ESITO": "Negativo", "DATA_PRELIEVO": "2022-06-25", "ZONAZIONE": "ZR", "CASI": 1, "LUOGO_DESCRIZIONE": "RITROVAMENTO SU SEGNALAZIONE", "ANIMALE_INCIDENTATO": "SI", "AREA": 1, "ZONA_RESTRIZIONE": "LIM" }, "geometry": { "type": "Point", "coordinates": [ 9.577757, 44.945847 ] } },
{ "type": "Feature", "properties": { "NOME_REGIONE": "LAZIO", "NOME_PROVINCIA": "ROMA", "NOME_COMUNE": "ROMA", "SPECIE": "SUINO", "DATA_SOSPETTO": null, "DATA_CONFERMA": null, "ESITO": "Negativo", "DATA_PRELIEVO": "2022-06-24", "ZONAZIONE": "ZR", "CASI": 1, "LUOGO_DESCRIZIONE": "ALLEVAMENTO (BREEDING)", "ANIMALE_INCIDENTATO": "Non determinato", "AREA": 2, "ZONA_RESTRIZIONE": "III" }, "geometry": { "type": "Point", "coordinates": [ 12.34412, 41.89174 ] } },
{ "type": "Feature", "properties": { "NOME_REGIONE": "LIGURIA", "NOME_PROVINCIA": "SAVONA", "NOME_COMUNE": "ALBENGA", "SPECIE": "CINGHIALE", "DATA_SOSPETTO": null, "DATA_CONFERMA": null, "ESITO": "Negativo", "DATA_PRELIEVO": "2022-06-24", "ZONAZIONE": "ZR", "CASI": 1, "LUOGO_DESCRIZIONE": "RITROVAMENTO SU SEGNALAZIONE", "ANIMALE_INCIDENTATO": "SI", "AREA": 1, "ZONA_RESTRIZIONE": "LIM" }, "geometry": { "type": "Point", "coordinates": [ 8.206596, 44.045094 ] } },
{ "type": "Feature", "properties": { "NOME_REGIONE": "LOMBARDIA", "NOME_PROVINCIA": "PAVIA", "NOME_COMUNE": "CORTEOLONA E GENZONE", "SPECIE": "SUINO", "DATA_SOSPETTO": null, "DATA_CONFERMA": null, "ESITO": "Negativo", "DATA_PRELIEVO": "2022-06-24", "ZONAZIONE": "ZR", "CASI": 1, "LUOGO_DESCRIZIONE": "ALLEVAMENTO (BREEDING)", "ANIMALE_INCIDENTATO": "Non determinato", "AREA": 1, "ZONA_RESTRIZIONE": "LIM" }, "geometry": { "type": "Point", "coordinates": [ 9.34165, 45.186094 ] } },
{ "type": "Feature", "properties": { "NOME_REGIONE": "PIEMONTE", "NOME_PROVINCIA": "CUNEO", "NOME_COMUNE": "CORTEMILIA", "SPECIE": "CINGHIALE", "DATA_SOSPETTO": null, "DATA_CONFERMA": null, "ESITO": "Negativo", "DATA_PRELIEVO": "2022-06-24", "ZONAZIONE": "ZR", "CASI": 1, "LUOGO_DESCRIZIONE": "RITROVAMENTO SU SEGNALAZIONE", "ANIMALE_INCIDENTATO": "NON DETERMINATO", "AREA": 1, "ZONA_RESTRIZIONE": "LIM" }, "geometry": { "type": "Point", "coordinates": [ 8.192209, 44.580758 ] } },
{ "type": "Feature", "properties": { "NOME_REGIONE": "PIEMONTE", "NOME_PROVINCIA": "ALESSANDRIA", "NOME_COMUNE": "NOVI LIGURE", "SPECIE": "CINGHIALE", "DATA_SOSPETTO": null, "DATA_CONFERMA": null, "ESITO": "Negativo", "DATA_PRELIEVO": "2022-06-24", "ZONAZIONE": "ZR", "CASI": 1, "LUOGO_DESCRIZIONE": "RITROVAMENTO SU SEGNALAZIONE", "ANIMALE_INCIDENTATO": "SI", "AREA": 1, "ZONA_RESTRIZIONE": "II" }, "geometry": { "type": "Point", "coordinates": [ 8.760018, 44.768525 ] } },
{ "type": "Feature", "properties": { "NOME_REGIONE": "PIEMONTE", "NOME_PROVINCIA": "ALESSANDRIA", "NOME_COMUNE": "GARBAGNA", "SPECIE": "CINGHIALE", "DATA_SOSPETTO": null, "DATA_CONFERMA": null, "ESITO": "Negativo", "DATA_PRELIEVO": "2022-06-24", "ZONAZIONE": "ZR", "CASI": 1, "LUOGO_DESCRIZIONE": "RITROVAMENTO SU SEGNALAZIONE", "ANIMALE_INCIDENTATO": "SI", "AREA": 1, "ZONA_RESTRIZIONE": "II" }, "geometry": { "type": "Point", "coordinates": [ 9.034138, 44.777203 ] } },
{ "type": "Feature", "properties": { "NOME_REGIONE": "PIEMONTE", "NOME_PROVINCIA": "CUNEO", "NOME_COMUNE": "RACCONIGI", "SPECIE": "SUINO", "DATA_SOSPETTO": null, "DATA_CONFERMA": null, "ESITO": "Negativo", "DATA_PRELIEVO": "2022-06-24", "ZONAZIONE": "ZR", "CASI": 1, "LUOGO_DESCRIZIONE": "ALLEVAMENTO (BREEDING)", "ANIMALE_INCIDENTATO": "Non determinato", "AREA": 1, "ZONA_RESTRIZIONE": "LIM" }, "geometry": { "type": "Point", "coordinates": [ 7.659693, 44.801389 ] } },
{ "type": "Feature", "properties": { "NOME_REGIONE": "SARDEGNA", "NOME_PROVINCIA": "SASSARI", "NOME_COMUNE": "PUTIFIGARI", "SPECIE": "SUINO", "DATA_SOSPETTO": null, "DATA_CONFERMA": null, "ESITO": "Negativo", "DATA_PRELIEVO": "2022-06-24", "ZONAZIONE": "ZR", "CASI": 1, "LUOGO_DESCRIZIONE": "ALLEVAMENTO (BREEDING)", "ANIMALE_INCIDENTATO": "Non determinato", "AREA": 4, "ZONA_RESTRIZIONE": "III" }, "geometry": { "type": "Point", "coordinates": [ 8.461516, 40.578554 ] } },
{ "type": "Feature", "properties": { "NOME_REGIONE": "LAZIO", "NOME_PROVINCIA": "ROMA", "NOME_COMUNE": "ROMA", "SPECIE": "CINGHIALE", "DATA_SOSPETTO": null, "DATA_CONFERMA": null, "ESITO": "Negativo", "DATA_PRELIEVO": "2022-06-24", "ZONAZIONE": "ZR", "CASI": 1, "LUOGO_DESCRIZIONE": "RITROVAMENTO SU SEGNALAZIONE", "ANIMALE_INCIDENTATO": "NO", "AREA": 2, "ZONA_RESTRIZIONE": "III" }, "geometry": { "type": "Point", "coordinates": [ 12.353654, 41.94234 ] } },
{ "type": "Feature", "properties": { "NOME_REGIONE": "SARDEGNA", "NOME_PROVINCIA": "NUORO", "NOME_COMUNE": "LEI", "SPECIE": "CINGHIALE", "DATA_SOSPETTO": null, "DATA_CONFERMA": null, "ESITO": "Negativo", "DATA_PRELIEVO": "2022-06-24", "ZONAZIONE": "ZR", "CASI": 1, "LUOGO_DESCRIZIONE": "RITROVAMENTO SU SEGNALAZIONE", "ANIMALE_INCIDENTATO": "SI", "AREA": 4, "ZONA_RESTRIZIONE": "III" }, "geometry": { "type": "Point", "coordinates": [ 8.941723, 40.29531 ] } },
{ "type": "Feature", "properties": { "NOME_REGIONE": "LAZIO", "NOME_PROVINCIA": "ROMA", "NOME_COMUNE": "FONTE NUOVA", "SPECIE": "CINGHIALE", "DATA_SOSPETTO": null, "DATA_CONFERMA": null, "ESITO": "Negativo", "DATA_PRELIEVO": "2022-06-24", "ZONAZIONE": "ZR", "CASI": 1, "LUOGO_DESCRIZIONE": "RITROVAMENTO SU SEGNALAZIONE", "ANIMALE_INCIDENTATO": "SI", "AREA": 2, "ZONA_RESTRIZIONE": "I" }, "geometry": { "type": "Point", "coordinates": [ 12.633849, 42.015357 ] } },
{ "type": "Feature", "properties": { "NOME_REGIONE": "LAZIO", "NOME_PROVINCIA": "ROMA", "NOME_COMUNE": "JENNE", "SPECIE": "CINGHIALE", "DATA_SOSPETTO": null, "DATA_CONFERMA": null, "ESITO": "Negativo", "DATA_PRELIEVO": "2022-06-24", "ZONAZIONE": "ZR", "CASI": 1, "LUOGO_DESCRIZIONE": "RITROVAMENTO SU SEGNALAZIONE", "ANIMALE_INCIDENTATO": "NO", "AREA": 2, "ZONA_RESTRIZIONE": "LIM" }, "geometry": { "type": "Point", "coordinates": [ 13.166259, 41.887528 ] } },
{ "type": "Feature", "properties": { "NOME_REGIONE": "SARDEGNA", "NOME_PROVINCIA": "SASSARI", "NOME_COMUNE": "PLOAGHE", "SPECIE": "SUINO", "DATA_SOSPETTO": null, "DATA_CONFERMA": null, "ESITO": "Negativo", "DATA_PRELIEVO": "2022-06-24", "ZONAZIONE": "ZR", "CASI": 1, "LUOGO_DESCRIZIONE": "ALLEVAMENTO (BREEDING)", "ANIMALE_INCIDENTATO": "Non determinato", "AREA": 4, "ZONA_RESTRIZIONE": "III" }, "geometry": { "type": "Point", "coordinates": [ 8.72358, 40.64552 ] } },
{ "type": "Feature", "properties": { "NOME_REGIONE": "PIEMONTE", "NOME_PROVINCIA": "ALESSANDRIA", "NOME_COMUNE": "OVADA", "SPECIE": "CINGHIALE", "DATA_SOSPETTO": "2022-06-24", "DATA_CONFERMA": "2022-06-28", "ESITO": "Positivo", "DATA_PRELIEVO": "2022-06-24", "ZONAZIONE": "ZR", "CASI": 1, "LUOGO_DESCRIZIONE": "RITROVAMENTO SU SEGNALAZIONE", "ANIMALE_INCIDENTATO": "NON DETERMINATO", "AREA": 1, "ZONA_RESTRIZIONE": "II" }, "geometry": { "type": "Point", "coordinates": [ 8.627381, 44.653271 ] } },
{ "type": "Feature", "properties": { "NOME_REGIONE": "PIEMONTE", "NOME_PROVINCIA": "CUNEO", "NOME_COMUNE": "MARENE", "SPECIE": "SUINO", "DATA_SOSPETTO": null, "DATA_CONFERMA": null, "ESITO": "Negativo", "DATA_PRELIEVO": "2022-06-24", "ZONAZIONE": "ZR", "CASI": 1, "LUOGO_DESCRIZIONE": "ALLEVAMENTO (BREEDING)", "ANIMALE_INCIDENTATO": "Non determinato", "AREA": 1, "ZONA_RESTRIZIONE": "LIM" }, "geometry": { "type": "Point", "coordinates": [ 7.731036, 44.638227 ] } },
{ "type": "Feature", "properties": { "NOME_REGIONE": "PIEMONTE", "NOME_PROVINCIA": "CUNEO", "NOME_COMUNE": "CORTEMILIA", "SPECIE": "CINGHIALE", "DATA_SOSPETTO": null, "DATA_CONFERMA": null, "ESITO": "Negativo", "DATA_PRELIEVO": "2022-06-24", "ZONAZIONE": "ZR", "CASI": 1, "LUOGO_DESCRIZIONE": "RITROVAMENTO SU SEGNALAZIONE", "ANIMALE_INCIDENTATO": "NON DETERMINATO", "AREA": 1, "ZONA_RESTRIZIONE": "LIM" }, "geometry": { "type": "Point", "coordinates": [ 8.192209, 44.580758 ] } },
{ "type": "Feature", "properties": { "NOME_REGIONE": "LAZIO", "NOME_PROVINCIA": "ROMA", "NOME_COMUNE": "JENNE", "SPECIE": "CINGHIALE", "DATA_SOSPETTO": null, "DATA_CONFERMA": null, "ESITO": "Negativo", "DATA_PRELIEVO": "2022-06-24", "ZONAZIONE": "ZR", "CASI": 1, "LUOGO_DESCRIZIONE": "RITROVAMENTO SU SEGNALAZIONE", "ANIMALE_INCIDENTATO": "NO", "AREA": 2, "ZONA_RESTRIZIONE": "LIM" }, "geometry": { "type": "Point", "coordinates": [ 13.166259, 41.887528 ] } },
{ "type": "Feature", "properties": { "NOME_REGIONE": "LOMBARDIA", "NOME_PROVINCIA": "PAVIA", "NOME_COMUNE": "CORTEOLONA E GENZONE", "SPECIE": "SUINO", "DATA_SOSPETTO": null, "DATA_CONFERMA": null, "ESITO": "Negativo", "DATA_PRELIEVO": "2022-06-24", "ZONAZIONE": "ZR", "CASI": 1, "LUOGO_DESCRIZIONE": "ALLEVAMENTO (BREEDING)", "ANIMALE_INCIDENTATO": "Non determinato", "AREA": 1, "ZONA_RESTRIZIONE": "LIM" }, "geometry": { "type": "Point", "coordinates": [ 9.34165, 45.186094 ] } },
{ "type": "Feature", "properties": { "NOME_REGIONE": "LAZIO", "NOME_PROVINCIA": "ROMA", "NOME_COMUNE": "JENNE", "SPECIE": "CINGHIALE", "DATA_SOSPETTO": null, "DATA_CONFERMA": null, "ESITO": "Negativo", "DATA_PRELIEVO": "2022-06-24", "ZONAZIONE": "ZR", "CASI": 1, "LUOGO_DESCRIZIONE": "RITROVAMENTO SU SEGNALAZIONE", "ANIMALE_INCIDENTATO": "NO", "AREA": 2, "ZONA_RESTRIZIONE": "LIM" }, "geometry": { "type": "Point", "coordinates": [ 13.166259, 41.887528 ] } },
{ "type": "Feature", "properties": { "NOME_REGIONE": "LAZIO", "NOME_PROVINCIA": "ROMA", "NOME_COMUNE": "JENNE", "SPECIE": "CINGHIALE", "DATA_SOSPETTO": null, "DATA_CONFERMA": null, "ESITO": "Negativo", "DATA_PRELIEVO": "2022-06-24", "ZONAZIONE": "ZR", "CASI": 1, "LUOGO_DESCRIZIONE": "RITROVAMENTO SU SEGNALAZIONE", "ANIMALE_INCIDENTATO": "NO", "AREA": 2, "ZONA_RESTRIZIONE": "LIM" }, "geometry": { "type": "Point", "coordinates": [ 13.166259, 41.887521 ] } },
{ "type": "Feature", "properties": { "NOME_REGIONE": "PIEMONTE", "NOME_PROVINCIA": "CUNEO", "NOME_COMUNE": "CORTEMILIA", "SPECIE": "CINGHIALE", "DATA_SOSPETTO": null, "DATA_CONFERMA": null, "ESITO": "Negativo", "DATA_PRELIEVO": "2022-06-24", "ZONAZIONE": "ZR", "CASI": 1, "LUOGO_DESCRIZIONE": "RITROVAMENTO SU SEGNALAZIONE", "ANIMALE_INCIDENTATO": "NON DETERMINATO", "AREA": 1, "ZONA_RESTRIZIONE": "LIM" }, "geometry": { "type": "Point", "coordinates": [ 8.192209, 44.580758 ] } },
{ "type": "Feature", "properties": { "NOME_REGIONE": "PIEMONTE", "NOME_PROVINCIA": "CUNEO", "NOME_COMUNE": "CAVALLERMAGGIORE", "SPECIE": "SUINO", "DATA_SOSPETTO": null, "DATA_CONFERMA": null, "ESITO": "Negativo", "DATA_PRELIEVO": "2022-06-23", "ZONAZIONE": "ZR", "CASI": 1, "LUOGO_DESCRIZIONE": "ALLEVAMENTO (BREEDING)", "ANIMALE_INCIDENTATO": "Non determinato", "AREA": 1, "ZONA_RESTRIZIONE": "LIM" }, "geometry": { "type": "Point", "coordinates": [ 7.724409, 44.724754 ] } },
{ "type": "Feature", "properties": { "NOME_REGIONE": "PIEMONTE", "NOME_PROVINCIA": "ASTI", "NOME_COMUNE": "COSTIGLIOLE D'ASTI", "SPECIE": "SUINO", "DATA_SOSPETTO": null, "DATA_CONFERMA": null, "ESITO": "Negativo", "DATA_PRELIEVO": "2022-06-23", "ZONAZIONE": "ZR", "CASI": 1, "LUOGO_DESCRIZIONE": "ALLEVAMENTO (BREEDING)", "ANIMALE_INCIDENTATO": "Non determinato", "AREA": 1, "ZONA_RESTRIZIONE": "LIM" }, "geometry": { "type": "Point", "coordinates": [ 8.160367, 44.795159 ] } },
{ "type": "Feature", "properties": { "NOME_REGIONE": "LAZIO", "NOME_PROVINCIA": "ROMA", "NOME_COMUNE": "ROMA", "SPECIE": "CINGHIALE", "DATA_SOSPETTO": "2022-06-23", "DATA_CONFERMA": "2022-06-24", "ESITO": "Positivo", "DATA_PRELIEVO": "2022-06-23", "ZONAZIONE": "ZR", "CASI": 1, "LUOGO_DESCRIZIONE": "RITROVAMENTO SU SEGNALAZIONE", "ANIMALE_INCIDENTATO": "NO", "AREA": 2, "ZONA_RESTRIZIONE": "III" }, "geometry": { "type": "Point", "coordinates": [ 12.4324, 41.94298 ] } },
{ "type": "Feature", "properties": { "NOME_REGIONE": "SARDEGNA", "NOME_PROVINCIA": "SASSARI", "NOME_COMUNE": "BONORVA", "SPECIE": "SUINO", "DATA_SOSPETTO": null, "DATA_CONFERMA": null, "ESITO": "Negativo", "DATA_PRELIEVO": "2022-06-23", "ZONAZIONE": "ZR", "CASI": 1, "LUOGO_DESCRIZIONE": "ALLEVAMENTO (BREEDING)", "ANIMALE_INCIDENTATO": "Non determinato", "AREA": 4, "ZONA_RESTRIZIONE": "III" }, "geometry": { "type": "Point", "coordinates": [ 8.75975, 40.380833 ] } },
{ "type": "Feature", "properties": { "NOME_REGIONE": "LIGURIA", "NOME_PROVINCIA": "GENOVA", "NOME_COMUNE": "RECCO", "SPECIE": "CINGHIALE", "DATA_SOSPETTO": null, "DATA_CONFERMA": null, "ESITO": "Negativo", "DATA_PRELIEVO": "2022-06-23", "ZONAZIONE": "ZR", "CASI": 1, "LUOGO_DESCRIZIONE": "RITROVAMENTO SU SEGNALAZIONE", "ANIMALE_INCIDENTATO": "SI", "AREA": 1, "ZONA_RESTRIZIONE": "I" }, "geometry": { "type": "Point", "coordinates": [ 9.14729, 44.37681 ] } },
{ "type": "Feature", "properties": { "NOME_REGIONE": "LAZIO", "NOME_PROVINCIA": "RIETI", "NOME_COMUNE": "RIETI", "SPECIE": "CINGHIALE", "DATA_SOSPETTO": null, "DATA_CONFERMA": null, "ESITO": "Negativo", "DATA_PRELIEVO": "2022-06-23", "ZONAZIONE": "ZP", "CASI": 1, "LUOGO_DESCRIZIONE": "RITROVAMENTO SU SEGNALAZIONE", "ANIMALE_INCIDENTATO": "NO", "AREA": 3, "ZONA_RESTRIZIONE": "LIM" }, "geometry": { "type": "Point", "coordinates": [ 12.96141, 42.4503 ] } },
{ "type": "Feature", "properties": { "NOME_REGIONE": "LOMBARDIA", "NOME_PROVINCIA": "PAVIA", "NOME_COMUNE": "SOMMO", "SPECIE": "SUINO", "DATA_SOSPETTO": null, "DATA_CONFERMA": null, "ESITO": "Negativo", "DATA_PRELIEVO": "2022-06-23", "ZONAZIONE": "ZR", "CASI": 1, "LUOGO_DESCRIZIONE": "ALLEVAMENTO (BREEDING)", "ANIMALE_INCIDENTATO": "Non determinato", "AREA": 1, "ZONA_RESTRIZIONE": "LIM" }, "geometry": { "type": "Point", "coordinates": [ 9.065544, 45.135429 ] } },
{ "type": "Feature", "properties": { "NOME_REGIONE": "LOMBARDIA", "NOME_PROVINCIA": "PAVIA", "NOME_COMUNE": "SOMMO", "SPECIE": "SUINO", "DATA_SOSPETTO": null, "DATA_CONFERMA": null, "ESITO": "Negativo", "DATA_PRELIEVO": "2022-06-23", "ZONAZIONE": "ZR", "CASI": 1, "LUOGO_DESCRIZIONE": "ALLEVAMENTO (BREEDING)", "ANIMALE_INCIDENTATO": "Non determinato", "AREA": 1, "ZONA_RESTRIZIONE": "LIM" }, "geometry": { "type": "Point", "coordinates": [ 9.065544, 45.135429 ] } },
{ "type": "Feature", "properties": { "NOME_REGIONE": "LIGURIA", "NOME_PROVINCIA": "SAVONA", "NOME_COMUNE": "ANDORA", "SPECIE": "CINGHIALE", "DATA_SOSPETTO": null, "DATA_CONFERMA": null, "ESITO": "Negativo", "DATA_PRELIEVO": "2022-06-23", "ZONAZIONE": "ZR", "CASI": 1, "LUOGO_DESCRIZIONE": "RITROVAMENTO SU SEGNALAZIONE", "ANIMALE_INCIDENTATO": "SI", "AREA": 1, "ZONA_RESTRIZIONE": "LIM" }, "geometry": { "type": "Point", "coordinates": [ 8.106023, 44.000786 ] } },
{ "type": "Feature", "properties": { "NOME_REGIONE": "PIEMONTE", "NOME_PROVINCIA": "CUNEO", "NOME_COMUNE": "RACCONIGI", "SPECIE": "SUINO", "DATA_SOSPETTO": null, "DATA_CONFERMA": null, "ESITO": "Negativo", "DATA_PRELIEVO": "2022-06-23", "ZONAZIONE": "ZR", "CASI": 1, "LUOGO_DESCRIZIONE": "ALLEVAMENTO (BREEDING)", "ANIMALE_INCIDENTATO": "Non determinato", "AREA": 1, "ZONA_RESTRIZIONE": "LIM" }, "geometry": { "type": "Point", "coordinates": [ 7.707842, 44.766113 ] } },
{ "type": "Feature", "properties": { "NOME_REGIONE": "PIEMONTE", "NOME_PROVINCIA": "ALESSANDRIA", "NOME_COMUNE": "MASIO", "SPECIE": "SUINO", "DATA_SOSPETTO": null, "DATA_CONFERMA": null, "ESITO": "Negativo", "DATA_PRELIEVO": "2022-06-23", "ZONAZIONE": "ZR", "CASI": 1, "LUOGO_DESCRIZIONE": "ALLEVAMENTO (BREEDING)", "ANIMALE_INCIDENTATO": "Non determinato", "AREA": 1, "ZONA_RESTRIZIONE": "LIM" }, "geometry": { "type": "Point", "coordinates": [ 8.451836, 44.864002 ] } },
{ "type": "Feature", "properties": { "NOME_REGIONE": "LIGURIA", "NOME_PROVINCIA": "GENOVA", "NOME_COMUNE": "RECCO", "SPECIE": "CINGHIALE", "DATA_SOSPETTO": null, "DATA_CONFERMA": null, "ESITO": "Negativo", "DATA_PRELIEVO": "2022-06-23", "ZONAZIONE": "ZR", "CASI": 1, "LUOGO_DESCRIZIONE": "RITROVAMENTO SU SEGNALAZIONE", "ANIMALE_INCIDENTATO": "SI", "AREA": 1, "ZONA_RESTRIZIONE": "I" }, "geometry": { "type": "Point", "coordinates": [ 9.14729, 44.37681 ] } },
{ "type": "Feature", "properties": { "NOME_REGIONE": "SARDEGNA", "NOME_PROVINCIA": "SASSARI", "NOME_COMUNE": "BONORVA", "SPECIE": "SUINO", "DATA_SOSPETTO": null, "DATA_CONFERMA": null, "ESITO": "Negativo", "DATA_PRELIEVO": "2022-06-23", "ZONAZIONE": "ZR", "CASI": 1, "LUOGO_DESCRIZIONE": "ALLEVAMENTO (BREEDING)", "ANIMALE_INCIDENTATO": "Non determinato", "AREA": 4, "ZONA_RESTRIZIONE": "III" }, "geometry": { "type": "Point", "coordinates": [ 8.75975, 40.380833 ] } },
{ "type": "Feature", "properties": { "NOME_REGIONE": "LIGURIA", "NOME_PROVINCIA": "GENOVA", "NOME_COMUNE": "RONCO SCRIVIA", "SPECIE": "CINGHIALE", "DATA_SOSPETTO": null, "DATA_CONFERMA": null, "ESITO": "Negativo", "DATA_PRELIEVO": "2022-06-23", "ZONAZIONE": "ZR", "CASI": 1, "LUOGO_DESCRIZIONE": "RITROVAMENTO SU SEGNALAZIONE", "ANIMALE_INCIDENTATO": "SI", "AREA": 1, "ZONA_RESTRIZIONE": "II" }, "geometry": { "type": "Point", "coordinates": [ 8.97852, 44.60233 ] } },
{ "type": "Feature", "properties": { "NOME_REGIONE": "LIGURIA", "NOME_PROVINCIA": "GENOVA", "NOME_COMUNE": "GENOVA", "SPECIE": "CINGHIALE", "DATA_SOSPETTO": null, "DATA_CONFERMA": null, "ESITO": "Negativo", "DATA_PRELIEVO": "2022-06-23", "ZONAZIONE": "ZR", "CASI": 1, "LUOGO_DESCRIZIONE": "ABBATTUTI\/CACCIATI", "ANIMALE_INCIDENTATO": "NO", "AREA": 1, "ZONA_RESTRIZIONE": "II" }, "geometry": { "type": "Point", "coordinates": [ 8.984613, 44.46032 ] } },
{ "type": "Feature", "properties": { "NOME_REGIONE": "LAZIO", "NOME_PROVINCIA": "ROMA", "NOME_COMUNE": "ROMA", "SPECIE": "CINGHIALE", "DATA_SOSPETTO": null, "DATA_CONFERMA": null, "ESITO": "Negativo", "DATA_PRELIEVO": "2022-06-23", "ZONAZIONE": "ZR", "CASI": 1, "LUOGO_DESCRIZIONE": "RITROVAMENTO SU SEGNALAZIONE", "ANIMALE_INCIDENTATO": "NO", "AREA": 2, "ZONA_RESTRIZIONE": "I" }, "geometry": { "type": "Point", "coordinates": [ 12.307429, 42.10606 ] } },
{ "type": "Feature", "properties": { "NOME_REGIONE": "LOMBARDIA", "NOME_PROVINCIA": "PAVIA", "NOME_COMUNE": "TROMELLO", "SPECIE": "SUINO", "DATA_SOSPETTO": null, "DATA_CONFERMA": null, "ESITO": "Negativo", "DATA_PRELIEVO": "2022-06-22", "ZONAZIONE": "ZR", "CASI": 1, "LUOGO_DESCRIZIONE": "ALLEVAMENTO (BREEDING)", "ANIMALE_INCIDENTATO": "Non determinato", "AREA": 1, "ZONA_RESTRIZIONE": "LIM" }, "geometry": { "type": "Point", "coordinates": [ 8.878522, 45.223777 ] } },
{ "type": "Feature", "properties": { "NOME_REGIONE": "LOMBARDIA", "NOME_PROVINCIA": "PAVIA", "NOME_COMUNE": "STRADELLA", "SPECIE": "CINGHIALE", "DATA_SOSPETTO": null, "DATA_CONFERMA": null, "ESITO": "Negativo", "DATA_PRELIEVO": "2022-06-22", "ZONAZIONE": "ZR", "CASI": 1, "LUOGO_DESCRIZIONE": "RITROVAMENTO SU SEGNALAZIONE", "ANIMALE_INCIDENTATO": "SI", "AREA": 1, "ZONA_RESTRIZIONE": "LIM" }, "geometry": { "type": "Point", "coordinates": [ 9.302257, 45.078975 ] } },
{ "type": "Feature", "properties": { "NOME_REGIONE": "PIEMONTE", "NOME_PROVINCIA": "CUNEO", "NOME_COMUNE": "FOSSANO", "SPECIE": "SUINO", "DATA_SOSPETTO": null, "DATA_CONFERMA": null, "ESITO": "Negativo", "DATA_PRELIEVO": "2022-06-22", "ZONAZIONE": "ZR", "CASI": 1, "LUOGO_DESCRIZIONE": "ALLEVAMENTO (BREEDING)", "ANIMALE_INCIDENTATO": "Non determinato", "AREA": 1, "ZONA_RESTRIZIONE": "LIM" }, "geometry": { "type": "Point", "coordinates": [ 7.746363, 44.553448 ] } },
{ "type": "Feature", "properties": { "NOME_REGIONE": "PIEMONTE", "NOME_PROVINCIA": "CUNEO", "NOME_COMUNE": "PIASCO", "SPECIE": "SUINO", "DATA_SOSPETTO": null, "DATA_CONFERMA": null, "ESITO": "Negativo", "DATA_PRELIEVO": "2022-06-22", "ZONAZIONE": "ZR", "CASI": 1, "LUOGO_DESCRIZIONE": "ALLEVAMENTO (BREEDING)", "ANIMALE_INCIDENTATO": "Non determinato", "AREA": 1, "ZONA_RESTRIZIONE": "LIM" }, "geometry": { "type": "Point", "coordinates": [ 7.43784, 44.573645 ] } },
{ "type": "Feature", "properties": { "NOME_REGIONE": "LOMBARDIA", "NOME_PROVINCIA": "PAVIA", "NOME_COMUNE": "ZEME", "SPECIE": "SUINO", "DATA_SOSPETTO": null, "DATA_CONFERMA": null, "ESITO": "Negativo", "DATA_PRELIEVO": "2022-06-22", "ZONAZIONE": "ZR", "CASI": 1, "LUOGO_DESCRIZIONE": "ALLEVAMENTO (BREEDING)", "ANIMALE_INCIDENTATO": "Non determinato", "AREA": 1, "ZONA_RESTRIZIONE": "LIM" }, "geometry": { "type": "Point", "coordinates": [ 8.638945, 45.200118 ] } },
{ "type": "Feature", "properties": { "NOME_REGIONE": "PIEMONTE", "NOME_PROVINCIA": "CUNEO", "NOME_COMUNE": "RACCONIGI", "SPECIE": "SUINO", "DATA_SOSPETTO": null, "DATA_CONFERMA": null, "ESITO": "Negativo", "DATA_PRELIEVO": "2022-06-22", "ZONAZIONE": "ZR", "CASI": 1, "LUOGO_DESCRIZIONE": "ALLEVAMENTO (BREEDING)", "ANIMALE_INCIDENTATO": "Non determinato", "AREA": 1, "ZONA_RESTRIZIONE": "LIM" }, "geometry": { "type": "Point", "coordinates": [ 7.657592, 44.782782 ] } },
{ "type": "Feature", "properties": { "NOME_REGIONE": "PIEMONTE", "NOME_PROVINCIA": "CUNEO", "NOME_COMUNE": "PIASCO", "SPECIE": "SUINO", "DATA_SOSPETTO": null, "DATA_CONFERMA": null, "ESITO": "Negativo", "DATA_PRELIEVO": "2022-06-22", "ZONAZIONE": "ZR", "CASI": 1, "LUOGO_DESCRIZIONE": "ALLEVAMENTO (BREEDING)", "ANIMALE_INCIDENTATO": "Non determinato", "AREA": 1, "ZONA_RESTRIZIONE": "LIM" }, "geometry": { "type": "Point", "coordinates": [ 7.43784, 44.573645 ] } },
{ "type": "Feature", "properties": { "NOME_REGIONE": "LOMBARDIA", "NOME_PROVINCIA": "PAVIA", "NOME_COMUNE": "ZEME", "SPECIE": "SUINO", "DATA_SOSPETTO": null, "DATA_CONFERMA": null, "ESITO": "Negativo", "DATA_PRELIEVO": "2022-06-22", "ZONAZIONE": "ZR", "CASI": 1, "LUOGO_DESCRIZIONE": "ALLEVAMENTO (BREEDING)", "ANIMALE_INCIDENTATO": "Non determinato", "AREA": 1, "ZONA_RESTRIZIONE": "LIM" }, "geometry": { "type": "Point", "coordinates": [ 8.638945, 45.200118 ] } },
{ "type": "Feature", "properties": { "NOME_REGIONE": "SARDEGNA", "NOME_PROVINCIA": "NUORO", "NOME_COMUNE": "ORGOSOLO", "SPECIE": "SUINO", "DATA_SOSPETTO": null, "DATA_CONFERMA": null, "ESITO": "Negativo", "DATA_PRELIEVO": "2022-06-22", "ZONAZIONE": "ZR", "CASI": 1, "LUOGO_DESCRIZIONE": "ALLEVAMENTO (BREEDING)", "ANIMALE_INCIDENTATO": "Non determinato", "AREA": 4, "ZONA_RESTRIZIONE": "III" }, "geometry": { "type": "Point", "coordinates": [ 9.394181, 40.219921 ] } },
{ "type": "Feature", "properties": { "NOME_REGIONE": "LAZIO", "NOME_PROVINCIA": "ROMA", "NOME_COMUNE": "VELLETRI", "SPECIE": "SUINO", "DATA_SOSPETTO": null, "DATA_CONFERMA": null, "ESITO": "Negativo", "DATA_PRELIEVO": "2022-06-22", "ZONAZIONE": "ZR", "CASI": 1, "LUOGO_DESCRIZIONE": "ALLEVAMENTO (BREEDING)", "ANIMALE_INCIDENTATO": "Non determinato", "AREA": 2, "ZONA_RESTRIZIONE": "LIM" }, "geometry": { "type": "Point", "coordinates": [ 12.809984, 41.6317 ] } },
{ "type": "Feature", "properties": { "NOME_REGIONE": "LAZIO", "NOME_PROVINCIA": "ROMA", "NOME_COMUNE": "ROMA", "SPECIE": "CINGHIALE", "DATA_SOSPETTO": null, "DATA_CONFERMA": null, "ESITO": "Negativo", "DATA_PRELIEVO": "2022-06-22", "ZONAZIONE": "ZR", "CASI": 1, "LUOGO_DESCRIZIONE": "RITROVAMENTO SU SEGNALAZIONE", "ANIMALE_INCIDENTATO": "NO", "AREA": 2, "ZONA_RESTRIZIONE": "III" }, "geometry": { "type": "Point", "coordinates": [ 12.42435, 41.98004 ] } },
{ "type": "Feature", "properties": { "NOME_REGIONE": "LIGURIA", "NOME_PROVINCIA": "SAVONA", "NOME_COMUNE": "SAVONA", "SPECIE": "CINGHIALE", "DATA_SOSPETTO": null, "DATA_CONFERMA": null, "ESITO": "Negativo", "DATA_PRELIEVO": "2022-06-22", "ZONAZIONE": "ZR", "CASI": 1, "LUOGO_DESCRIZIONE": "RITROVAMENTO SU SEGNALAZIONE", "ANIMALE_INCIDENTATO": "NON DETERMINATO", "AREA": 1, "ZONA_RESTRIZIONE": "I" }, "geometry": { "type": "Point", "coordinates": [ 8.449248, 44.329292 ] } },
{ "type": "Feature", "properties": { "NOME_REGIONE": "LOMBARDIA", "NOME_PROVINCIA": "PAVIA", "NOME_COMUNE": "FILIGHERA", "SPECIE": "SUINO", "DATA_SOSPETTO": null, "DATA_CONFERMA": null, "ESITO": "Negativo", "DATA_PRELIEVO": "2022-06-22", "ZONAZIONE": "ZR", "CASI": 1, "LUOGO_DESCRIZIONE": "ALLEVAMENTO (BREEDING)", "ANIMALE_INCIDENTATO": "Non determinato", "AREA": 1, "ZONA_RESTRIZIONE": "LIM" }, "geometry": { "type": "Point", "coordinates": [ 9.295627, 45.184341 ] } },
{ "type": "Feature", "properties": { "NOME_REGIONE": "LOMBARDIA", "NOME_PROVINCIA": "PAVIA", "NOME_COMUNE": "SAN GIORGIO DI LOMELLINA", "SPECIE": "SUINO", "DATA_SOSPETTO": null, "DATA_CONFERMA": null, "ESITO": "Negativo", "DATA_PRELIEVO": "2022-06-22", "ZONAZIONE": "ZR", "CASI": 1, "LUOGO_DESCRIZIONE": "ALLEVAMENTO (BREEDING)", "ANIMALE_INCIDENTATO": "Non determinato", "AREA": 1, "ZONA_RESTRIZIONE": "LIM" }, "geometry": { "type": "Point", "coordinates": [ 8.78055, 45.153698 ] } },
{ "type": "Feature", "properties": { "NOME_REGIONE": "LAZIO", "NOME_PROVINCIA": "ROMA", "NOME_COMUNE": "ROMA", "SPECIE": "CINGHIALE", "DATA_SOSPETTO": null, "DATA_CONFERMA": null, "ESITO": "Negativo", "DATA_PRELIEVO": "2022-06-22", "ZONAZIONE": "ZR", "CASI": 1, "LUOGO_DESCRIZIONE": "RITROVAMENTO SU SEGNALAZIONE", "ANIMALE_INCIDENTATO": "SI", "AREA": 2, "ZONA_RESTRIZIONE": "III" }, "geometry": { "type": "Point", "coordinates": [ 12.37254, 42.06953 ] } },
{ "type": "Feature", "properties": { "NOME_REGIONE": "LOMBARDIA", "NOME_PROVINCIA": "PAVIA", "NOME_COMUNE": "FILIGHERA", "SPECIE": "SUINO", "DATA_SOSPETTO": null, "DATA_CONFERMA": null, "ESITO": "Negativo", "DATA_PRELIEVO": "2022-06-22", "ZONAZIONE": "ZR", "CASI": 1, "LUOGO_DESCRIZIONE": "ALLEVAMENTO (BREEDING)", "ANIMALE_INCIDENTATO": "Non determinato", "AREA": 1, "ZONA_RESTRIZIONE": "LIM" }, "geometry": { "type": "Point", "coordinates": [ 9.295627, 45.184341 ] } },
{ "type": "Feature", "properties": { "NOME_REGIONE": "LOMBARDIA", "NOME_PROVINCIA": "PAVIA", "NOME_COMUNE": "VILLANTERIO", "SPECIE": "SUINO", "DATA_SOSPETTO": null, "DATA_CONFERMA": null, "ESITO": "Negativo", "DATA_PRELIEVO": "2022-06-22", "ZONAZIONE": "ZR", "CASI": 1, "LUOGO_DESCRIZIONE": "ALLEVAMENTO (BREEDING)", "ANIMALE_INCIDENTATO": "Non determinato", "AREA": 1, "ZONA_RESTRIZIONE": "LIM" }, "geometry": { "type": "Point", "coordinates": [ 9.366998, 45.230402 ] } },
{ "type": "Feature", "properties": { "NOME_REGIONE": "LAZIO", "NOME_PROVINCIA": "ROMA", "NOME_COMUNE": "ROMA", "SPECIE": "CINGHIALE", "DATA_SOSPETTO": null, "DATA_CONFERMA": null, "ESITO": "Negativo", "DATA_PRELIEVO": "2022-06-22", "ZONAZIONE": "ZR", "CASI": 1, "LUOGO_DESCRIZIONE": "RITROVAMENTO SU SEGNALAZIONE", "ANIMALE_INCIDENTATO": "SI", "AREA": 2, "ZONA_RESTRIZIONE": "III" }, "geometry": { "type": "Point", "coordinates": [ 12.3725, 42.06851 ] } },
{ "type": "Feature", "properties": { "NOME_REGIONE": "LAZIO", "NOME_PROVINCIA": "RIETI", "NOME_COMUNE": "RIETI", "SPECIE": "CINGHIALE", "DATA_SOSPETTO": null, "DATA_CONFERMA": null, "ESITO": "Negativo", "DATA_PRELIEVO": "2022-06-22", "ZONAZIONE": "ZP", "CASI": 1, "LUOGO_DESCRIZIONE": "RITROVAMENTO SU SEGNALAZIONE", "ANIMALE_INCIDENTATO": "SI", "AREA": 3, "ZONA_RESTRIZIONE": "LIM" }, "geometry": { "type": "Point", "coordinates": [ 12.869023, 42.37202 ] } },
{ "type": "Feature", "properties": { "NOME_REGIONE": "PIEMONTE", "NOME_PROVINCIA": "CUNEO", "NOME_COMUNE": "PIASCO", "SPECIE": "SUINO", "DATA_SOSPETTO": null, "DATA_CONFERMA": null, "ESITO": "Negativo", "DATA_PRELIEVO": "2022-06-22", "ZONAZIONE": "ZR", "CASI": 1, "LUOGO_DESCRIZIONE": "ALLEVAMENTO (BREEDING)", "ANIMALE_INCIDENTATO": "Non determinato", "AREA": 1, "ZONA_RESTRIZIONE": "LIM" }, "geometry": { "type": "Point", "coordinates": [ 7.43784, 44.573645 ] } },
{ "type": "Feature", "properties": { "NOME_REGIONE": "PIEMONTE", "NOME_PROVINCIA": "CUNEO", "NOME_COMUNE": "DRONERO", "SPECIE": "CINGHIALE", "DATA_SOSPETTO": null, "DATA_CONFERMA": null, "ESITO": "Negativo", "DATA_PRELIEVO": "2022-06-22", "ZONAZIONE": "ZR", "CASI": 1, "LUOGO_DESCRIZIONE": "RITROVAMENTO SU SEGNALAZIONE", "ANIMALE_INCIDENTATO": "NON DETERMINATO", "AREA": 1, "ZONA_RESTRIZIONE": "LIM" }, "geometry": { "type": "Point", "coordinates": [ 7.355706, 44.462879 ] } },
{ "type": "Feature", "properties": { "NOME_REGIONE": "LIGURIA", "NOME_PROVINCIA": "GENOVA", "NOME_COMUNE": "GENOVA", "SPECIE": "CINGHIALE", "DATA_SOSPETTO": null, "DATA_CONFERMA": null, "ESITO": "Negativo", "DATA_PRELIEVO": "2022-06-22", "ZONAZIONE": "ZR", "CASI": 1, "LUOGO_DESCRIZIONE": "ABBATTUTI\/CACCIATI", "ANIMALE_INCIDENTATO": "NO", "AREA": 1, "ZONA_RESTRIZIONE": "II" }, "geometry": { "type": "Point", "coordinates": [ 8.90806, 44.4275 ] } },
{ "type": "Feature", "properties": { "NOME_REGIONE": "PIEMONTE", "NOME_PROVINCIA": "CUNEO", "NOME_COMUNE": "CAVALLERLEONE", "SPECIE": "SUINO", "DATA_SOSPETTO": null, "DATA_CONFERMA": null, "ESITO": "Negativo", "DATA_PRELIEVO": "2022-06-22", "ZONAZIONE": "ZR", "CASI": 1, "LUOGO_DESCRIZIONE": "ALLEVAMENTO (BREEDING)", "ANIMALE_INCIDENTATO": "Non determinato", "AREA": 1, "ZONA_RESTRIZIONE": "LIM" }, "geometry": { "type": "Point", "coordinates": [ 7.626053, 44.739727 ] } },
{ "type": "Feature", "properties": { "NOME_REGIONE": "LAZIO", "NOME_PROVINCIA": "ROMA", "NOME_COMUNE": "ROMA", "SPECIE": "CINGHIALE", "DATA_SOSPETTO": "2022-06-23", "DATA_CONFERMA": "2022-06-23", "ESITO": "Positivo", "DATA_PRELIEVO": "2022-06-22", "ZONAZIONE": "ZR", "CASI": 1, "LUOGO_DESCRIZIONE": "RITROVAMENTO SU SEGNALAZIONE", "ANIMALE_INCIDENTATO": "NO", "AREA": 2, "ZONA_RESTRIZIONE": "III" }, "geometry": { "type": "Point", "coordinates": [ 12.4243, 41.94792 ] } },
{ "type": "Feature", "properties": { "NOME_REGIONE": "PIEMONTE", "NOME_PROVINCIA": "CUNEO", "NOME_COMUNE": "PIASCO", "SPECIE": "SUINO", "DATA_SOSPETTO": null, "DATA_CONFERMA": null, "ESITO": "Negativo", "DATA_PRELIEVO": "2022-06-22", "ZONAZIONE": "ZR", "CASI": 1, "LUOGO_DESCRIZIONE": "ALLEVAMENTO (BREEDING)", "ANIMALE_INCIDENTATO": "Non determinato", "AREA": 1, "ZONA_RESTRIZIONE": "LIM" }, "geometry": { "type": "Point", "coordinates": [ 7.43784, 44.573645 ] } },
{ "type": "Feature", "properties": { "NOME_REGIONE": "PIEMONTE", "NOME_PROVINCIA": "CUNEO", "NOME_COMUNE": "FOSSANO", "SPECIE": "SUINO", "DATA_SOSPETTO": null, "DATA_CONFERMA": null, "ESITO": "Negativo", "DATA_PRELIEVO": "2022-06-22", "ZONAZIONE": "ZR", "CASI": 1, "LUOGO_DESCRIZIONE": "ALLEVAMENTO (BREEDING)", "ANIMALE_INCIDENTATO": "Non determinato", "AREA": 1, "ZONA_RESTRIZIONE": "LIM" }, "geometry": { "type": "Point", "coordinates": [ 7.793721, 44.541827 ] } },
{ "type": "Feature", "properties": { "NOME_REGIONE": "PIEMONTE", "NOME_PROVINCIA": "CUNEO", "NOME_COMUNE": "DRONERO", "SPECIE": "CINGHIALE", "DATA_SOSPETTO": null, "DATA_CONFERMA": null, "ESITO": "Negativo", "DATA_PRELIEVO": "2022-06-22", "ZONAZIONE": "ZR", "CASI": 1, "LUOGO_DESCRIZIONE": "RITROVAMENTO SU SEGNALAZIONE", "ANIMALE_INCIDENTATO": "NON DETERMINATO", "AREA": 1, "ZONA_RESTRIZIONE": "LIM" }, "geometry": { "type": "Point", "coordinates": [ 7.355706, 44.462879 ] } },
{ "type": "Feature", "properties": { "NOME_REGIONE": "LOMBARDIA", "NOME_PROVINCIA": "PAVIA", "NOME_COMUNE": "VILLANTERIO", "SPECIE": "SUINO", "DATA_SOSPETTO": null, "DATA_CONFERMA": null, "ESITO": "Negativo", "DATA_PRELIEVO": "2022-06-22", "ZONAZIONE": "ZR", "CASI": 1, "LUOGO_DESCRIZIONE": "ALLEVAMENTO (BREEDING)", "ANIMALE_INCIDENTATO": "Non determinato", "AREA": 1, "ZONA_RESTRIZIONE": "LIM" }, "geometry": { "type": "Point", "coordinates": [ 9.366998, 45.230402 ] } },
{ "type": "Feature", "properties": { "NOME_REGIONE": "LOMBARDIA", "NOME_PROVINCIA": "PAVIA", "NOME_COMUNE": "SAN GIORGIO DI LOMELLINA", "SPECIE": "SUINO", "DATA_SOSPETTO": null, "DATA_CONFERMA": null, "ESITO": "Negativo", "DATA_PRELIEVO": "2022-06-22", "ZONAZIONE": "ZR", "CASI": 1, "LUOGO_DESCRIZIONE": "ALLEVAMENTO (BREEDING)", "ANIMALE_INCIDENTATO": "Non determinato", "AREA": 1, "ZONA_RESTRIZIONE": "LIM" }, "geometry": { "type": "Point", "coordinates": [ 8.78055, 45.153698 ] } },
{ "type": "Feature", "properties": { "NOME_REGIONE": "LOMBARDIA", "NOME_PROVINCIA": "PAVIA", "NOME_COMUNE": "TROMELLO", "SPECIE": "SUINO", "DATA_SOSPETTO": null, "DATA_CONFERMA": null, "ESITO": "Negativo", "DATA_PRELIEVO": "2022-06-22", "ZONAZIONE": "ZR", "CASI": 1, "LUOGO_DESCRIZIONE": "ALLEVAMENTO (BREEDING)", "ANIMALE_INCIDENTATO": "Non determinato", "AREA": 1, "ZONA_RESTRIZIONE": "LIM" }, "geometry": { "type": "Point", "coordinates": [ 8.878522, 45.223777 ] } },
{ "type": "Feature", "properties": { "NOME_REGIONE": "PIEMONTE", "NOME_PROVINCIA": "CUNEO", "NOME_COMUNE": "DRONERO", "SPECIE": "CINGHIALE", "DATA_SOSPETTO": null, "DATA_CONFERMA": null, "ESITO": "Negativo", "DATA_PRELIEVO": "2022-06-22", "ZONAZIONE": "ZR", "CASI": 1, "LUOGO_DESCRIZIONE": "RITROVAMENTO SU SEGNALAZIONE", "ANIMALE_INCIDENTATO": "NON DETERMINATO", "AREA": 1, "ZONA_RESTRIZIONE": "LIM" }, "geometry": { "type": "Point", "coordinates": [ 7.355706, 44.462879 ] } },
{ "type": "Feature", "properties": { "NOME_REGIONE": "PIEMONTE", "NOME_PROVINCIA": "CUNEO", "NOME_COMUNE": "CORTEMILIA", "SPECIE": "CINGHIALE", "DATA_SOSPETTO": null, "DATA_CONFERMA": null, "ESITO": "Negativo", "DATA_PRELIEVO": "2022-06-22", "ZONAZIONE": "ZR", "CASI": 1, "LUOGO_DESCRIZIONE": "RITROVAMENTO SU SEGNALAZIONE", "ANIMALE_INCIDENTATO": "NON DETERMINATO", "AREA": 1, "ZONA_RESTRIZIONE": "LIM" }, "geometry": { "type": "Point", "coordinates": [ 8.192209, 44.580758 ] } },
{ "type": "Feature", "properties": { "NOME_REGIONE": "LOMBARDIA", "NOME_PROVINCIA": "PAVIA", "NOME_COMUNE": "ALBUZZANO", "SPECIE": "SUINO", "DATA_SOSPETTO": null, "DATA_CONFERMA": null, "ESITO": "Negativo", "DATA_PRELIEVO": "2022-06-21", "ZONAZIONE": "ZR", "CASI": 1, "LUOGO_DESCRIZIONE": "ALLEVAMENTO (BREEDING)", "ANIMALE_INCIDENTATO": "Non determinato", "AREA": 1, "ZONA_RESTRIZIONE": "LIM" }, "geometry": { "type": "Point", "coordinates": [ 9.282114, 45.167155 ] } },
{ "type": "Feature", "properties": { "NOME_REGIONE": "LOMBARDIA", "NOME_PROVINCIA": "PAVIA", "NOME_COMUNE": "ALBUZZANO", "SPECIE": "SUINO", "DATA_SOSPETTO": null, "DATA_CONFERMA": null, "ESITO": "Negativo", "DATA_PRELIEVO": "2022-06-21", "ZONAZIONE": "ZR", "CASI": 1, "LUOGO_DESCRIZIONE": "ALLEVAMENTO (BREEDING)", "ANIMALE_INCIDENTATO": "Non determinato", "AREA": 1, "ZONA_RESTRIZIONE": "LIM" }, "geometry": { "type": "Point", "coordinates": [ 9.282114, 45.167155 ] } },
{ "type": "Feature", "properties": { "NOME_REGIONE": "LIGURIA", "NOME_PROVINCIA": "SAVONA", "NOME_COMUNE": "SASSELLO", "SPECIE": "CINGHIALE", "DATA_SOSPETTO": null, "DATA_CONFERMA": null, "ESITO": "Negativo", "DATA_PRELIEVO": "2022-06-21", "ZONAZIONE": "ZR", "CASI": 1, "LUOGO_DESCRIZIONE": "RITROVAMENTO SU SEGNALAZIONE", "ANIMALE_INCIDENTATO": "NO", "AREA": 1, "ZONA_RESTRIZIONE": "II" }, "geometry": { "type": "Point", "coordinates": [ 8.484366, 44.470234 ] } },
{ "type": "Feature", "properties": { "NOME_REGIONE": "ABRUZZO", "NOME_PROVINCIA": "L'AQUILA", "NOME_COMUNE": "BARISCIANO", "SPECIE": "CINGHIALE", "DATA_SOSPETTO": null, "DATA_CONFERMA": null, "ESITO": "Negativo", "DATA_PRELIEVO": "2022-06-21", "ZONAZIONE": "ZP", "CASI": 1, "LUOGO_DESCRIZIONE": "RITROVAMENTO SU SEGNALAZIONE", "ANIMALE_INCIDENTATO": "SI", "AREA": 3, "ZONA_RESTRIZIONE": "LIM" }, "geometry": { "type": "Point", "coordinates": [ 13.5034, 42.3251 ] } },
{ "type": "Feature", "properties": { "NOME_REGIONE": "LIGURIA", "NOME_PROVINCIA": "SAVONA", "NOME_COMUNE": "SASSELLO", "SPECIE": "CINGHIALE", "DATA_SOSPETTO": null, "DATA_CONFERMA": null, "ESITO": "Negativo", "DATA_PRELIEVO": "2022-06-21", "ZONAZIONE": "ZR", "CASI": 1, "LUOGO_DESCRIZIONE": "RITROVAMENTO SU SEGNALAZIONE", "ANIMALE_INCIDENTATO": "NO", "AREA": 1, "ZONA_RESTRIZIONE": "II" }, "geometry": { "type": "Point", "coordinates": [ 8.484366, 44.470234 ] } },
{ "type": "Feature", "properties": { "NOME_REGIONE": "LIGURIA", "NOME_PROVINCIA": "SAVONA", "NOME_COMUNE": "SASSELLO", "SPECIE": "CINGHIALE", "DATA_SOSPETTO": null, "DATA_CONFERMA": null, "ESITO": "Negativo", "DATA_PRELIEVO": "2022-06-21", "ZONAZIONE": "ZR", "CASI": 1, "LUOGO_DESCRIZIONE": "RITROVAMENTO SU SEGNALAZIONE", "ANIMALE_INCIDENTATO": "NO", "AREA": 1, "ZONA_RESTRIZIONE": "II" }, "geometry": { "type": "Point", "coordinates": [ 8.484366, 44.470234 ] } },
{ "type": "Feature", "properties": { "NOME_REGIONE": "PIEMONTE", "NOME_PROVINCIA": "ALESSANDRIA", "NOME_COMUNE": "CASSINELLE", "SPECIE": "CINGHIALE", "DATA_SOSPETTO": null, "DATA_CONFERMA": null, "ESITO": "Non idoneo", "DATA_PRELIEVO": "2022-06-21", "ZONAZIONE": "ZR", "CASI": 1, "LUOGO_DESCRIZIONE": "RITROVAMENTO SU SEGNALAZIONE", "ANIMALE_INCIDENTATO": "NON DETERMINATO", "AREA": 1, "ZONA_RESTRIZIONE": "II" }, "geometry": { "type": "Point", "coordinates": [ 8.553561, 44.614461 ] } },
{ "type": "Feature", "properties": { "NOME_REGIONE": "SARDEGNA", "NOME_PROVINCIA": "SASSARI", "NOME_COMUNE": "VILLANOVA MONTELEONE", "SPECIE": "SUINO", "DATA_SOSPETTO": null, "DATA_CONFERMA": null, "ESITO": "Negativo", "DATA_PRELIEVO": "2022-06-21", "ZONAZIONE": "ZR", "CASI": 1, "LUOGO_DESCRIZIONE": "ALLEVAMENTO (BREEDING)", "ANIMALE_INCIDENTATO": "Non determinato", "AREA": 4, "ZONA_RESTRIZIONE": "III" }, "geometry": { "type": "Point", "coordinates": [ 8.482614, 40.456564 ] } },
{ "type": "Feature", "properties": { "NOME_REGIONE": "PIEMONTE", "NOME_PROVINCIA": "ALESSANDRIA", "NOME_COMUNE": "MASIO", "SPECIE": "SUINO", "DATA_SOSPETTO": null, "DATA_CONFERMA": null, "ESITO": "Negativo", "DATA_PRELIEVO": "2022-06-21", "ZONAZIONE": "ZR", "CASI": 1, "LUOGO_DESCRIZIONE": "ALLEVAMENTO (BREEDING)", "ANIMALE_INCIDENTATO": "Non determinato", "AREA": 1, "ZONA_RESTRIZIONE": "LIM" }, "geometry": { "type": "Point", "coordinates": [ 8.451836, 44.864002 ] } },
{ "type": "Feature", "properties": { "NOME_REGIONE": "PIEMONTE", "NOME_PROVINCIA": "CUNEO", "NOME_COMUNE": "RACCONIGI", "SPECIE": "SUINO", "DATA_SOSPETTO": null, "DATA_CONFERMA": null, "ESITO": "Negativo", "DATA_PRELIEVO": "2022-06-21", "ZONAZIONE": "ZR", "CASI": 1, "LUOGO_DESCRIZIONE": "ALLEVAMENTO (BREEDING)", "ANIMALE_INCIDENTATO": "Non determinato", "AREA": 1, "ZONA_RESTRIZIONE": "LIM" }, "geometry": { "type": "Point", "coordinates": [ 7.659693, 44.801389 ] } },
{ "type": "Feature", "properties": { "NOME_REGIONE": "PIEMONTE", "NOME_PROVINCIA": "CUNEO", "NOME_COMUNE": "RACCONIGI", "SPECIE": "SUINO", "DATA_SOSPETTO": null, "DATA_CONFERMA": null, "ESITO": "Negativo", "DATA_PRELIEVO": "2022-06-21", "ZONAZIONE": "ZR", "CASI": 1, "LUOGO_DESCRIZIONE": "ALLEVAMENTO (BREEDING)", "ANIMALE_INCIDENTATO": "Non determinato", "AREA": 1, "ZONA_RESTRIZIONE": "LIM" }, "geometry": { "type": "Point", "coordinates": [ 7.666699, 44.815524 ] } },
{ "type": "Feature", "properties": { "NOME_REGIONE": "PIEMONTE", "NOME_PROVINCIA": "ALESSANDRIA", "NOME_COMUNE": "CASSINELLE", "SPECIE": "CINGHIALE", "DATA_SOSPETTO": "2022-06-21", "DATA_CONFERMA": "2022-06-23", "ESITO": "Positivo", "DATA_PRELIEVO": "2022-06-21", "ZONAZIONE": "ZR", "CASI": 1, "LUOGO_DESCRIZIONE": "RITROVAMENTO SU SEGNALAZIONE", "ANIMALE_INCIDENTATO": "NON DETERMINATO", "AREA": 1, "ZONA_RESTRIZIONE": "II" }, "geometry": { "type": "Point", "coordinates": [ 8.543594, 44.585165 ] } },
{ "type": "Feature", "properties": { "NOME_REGIONE": "ABRUZZO", "NOME_PROVINCIA": "L'AQUILA", "NOME_COMUNE": "NAVELLI", "SPECIE": "CINGHIALE", "DATA_SOSPETTO": null, "DATA_CONFERMA": null, "ESITO": "Negativo", "DATA_PRELIEVO": "2022-06-21", "ZONAZIONE": "ZP", "CASI": 1, "LUOGO_DESCRIZIONE": "RITROVAMENTO SU SEGNALAZIONE", "ANIMALE_INCIDENTATO": "SI", "AREA": 3, "ZONA_RESTRIZIONE": "LIM" }, "geometry": { "type": "Point", "coordinates": [ 13.7348, 42.2595 ] } },
{ "type": "Feature", "properties": { "NOME_REGIONE": "LAZIO", "NOME_PROVINCIA": "ROMA", "NOME_COMUNE": "ROMA", "SPECIE": "CINGHIALE", "DATA_SOSPETTO": null, "DATA_CONFERMA": null, "ESITO": "Negativo", "DATA_PRELIEVO": "2022-06-21", "ZONAZIONE": "ZR", "CASI": 1, "LUOGO_DESCRIZIONE": "RITROVAMENTO SU SEGNALAZIONE", "ANIMALE_INCIDENTATO": "SI", "AREA": 2, "ZONA_RESTRIZIONE": "III" }, "geometry": { "type": "Point", "coordinates": [ 12.44318, 41.93623 ] } },
{ "type": "Feature", "properties": { "NOME_REGIONE": "SARDEGNA", "NOME_PROVINCIA": "SASSARI", "NOME_COMUNE": "PORTO TORRES", "SPECIE": "CINGHIALE", "DATA_SOSPETTO": null, "DATA_CONFERMA": null, "ESITO": "Negativo", "DATA_PRELIEVO": "2022-06-21", "ZONAZIONE": "ZR", "CASI": 1, "LUOGO_DESCRIZIONE": "RITROVAMENTO SU SEGNALAZIONE", "ANIMALE_INCIDENTATO": "SI", "AREA": 4, "ZONA_RESTRIZIONE": "III" }, "geometry": { "type": "Point", "coordinates": [ 8.378183, 40.814766 ] } },
{ "type": "Feature", "properties": { "NOME_REGIONE": "PIEMONTE", "NOME_PROVINCIA": "ALESSANDRIA", "NOME_COMUNE": "PREDOSA", "SPECIE": "CINGHIALE", "DATA_SOSPETTO": null, "DATA_CONFERMA": null, "ESITO": "Negativo", "DATA_PRELIEVO": "2022-06-21", "ZONAZIONE": "ZR", "CASI": 1, "LUOGO_DESCRIZIONE": "RITROVAMENTO SU SEGNALAZIONE", "ANIMALE_INCIDENTATO": "SI", "AREA": 1, "ZONA_RESTRIZIONE": "II" }, "geometry": { "type": "Point", "coordinates": [ 8.640048, 44.74203 ] } },
{ "type": "Feature", "properties": { "NOME_REGIONE": "PIEMONTE", "NOME_PROVINCIA": "CUNEO", "NOME_COMUNE": "VILLANOVA SOLARO", "SPECIE": "SUINO", "DATA_SOSPETTO": null, "DATA_CONFERMA": null, "ESITO": "Negativo", "DATA_PRELIEVO": "2022-06-21", "ZONAZIONE": "ZR", "CASI": 1, "LUOGO_DESCRIZIONE": "ALLEVAMENTO (BREEDING)", "ANIMALE_INCIDENTATO": "Non determinato", "AREA": 1, "ZONA_RESTRIZIONE": "LIM" }, "geometry": { "type": "Point", "coordinates": [ 7.584772, 44.748622 ] } },
{ "type": "Feature", "properties": { "NOME_REGIONE": "PIEMONTE", "NOME_PROVINCIA": "CUNEO", "NOME_COMUNE": "RACCONIGI", "SPECIE": "SUINO", "DATA_SOSPETTO": null, "DATA_CONFERMA": null, "ESITO": "Negativo", "DATA_PRELIEVO": "2022-06-21", "ZONAZIONE": "ZR", "CASI": 1, "LUOGO_DESCRIZIONE": "ALLEVAMENTO (BREEDING)", "ANIMALE_INCIDENTATO": "Non determinato", "AREA": 1, "ZONA_RESTRIZIONE": "LIM" }, "geometry": { "type": "Point", "coordinates": [ 7.629206, 44.780527 ] } },
{ "type": "Feature", "properties": { "NOME_REGIONE": "LAZIO", "NOME_PROVINCIA": "ROMA", "NOME_COMUNE": "ROMA", "SPECIE": "CINGHIALE", "DATA_SOSPETTO": null, "DATA_CONFERMA": null, "ESITO": "Negativo", "DATA_PRELIEVO": "2022-06-20", "ZONAZIONE": "ZR", "CASI": 1, "LUOGO_DESCRIZIONE": "RITROVAMENTO SU SEGNALAZIONE", "ANIMALE_INCIDENTATO": "SI", "AREA": 2, "ZONA_RESTRIZIONE": "III" }, "geometry": { "type": "Point", "coordinates": [ 12.487477, 42.056902 ] } },
{ "type": "Feature", "properties": { "NOME_REGIONE": "LAZIO", "NOME_PROVINCIA": "RIETI", "NOME_COMUNE": "MAGLIANO SABINA", "SPECIE": "CINGHIALE", "DATA_SOSPETTO": null, "DATA_CONFERMA": null, "ESITO": "Negativo", "DATA_PRELIEVO": "2022-06-20", "ZONAZIONE": "ZP", "CASI": 1, "LUOGO_DESCRIZIONE": "RITROVAMENTO SU SEGNALAZIONE", "ANIMALE_INCIDENTATO": "SI", "AREA": 3, "ZONA_RESTRIZIONE": "LIM" }, "geometry": { "type": "Point", "coordinates": [ 12.4922, 42.338 ] } },
{ "type": "Feature", "properties": { "NOME_REGIONE": "LIGURIA", "NOME_PROVINCIA": "GENOVA", "NOME_COMUNE": "PIEVE LIGURE", "SPECIE": "CINGHIALE", "DATA_SOSPETTO": null, "DATA_CONFERMA": null, "ESITO": "Negativo", "DATA_PRELIEVO": "2022-06-20", "ZONAZIONE": "ZR", "CASI": 1, "LUOGO_DESCRIZIONE": "ABBATTUTI\/CACCIATI", "ANIMALE_INCIDENTATO": "NON DETERMINATO", "AREA": 1, "ZONA_RESTRIZIONE": "II" }, "geometry": { "type": "Point", "coordinates": [ 9.090944, 44.376379 ] } },
{ "type": "Feature", "properties": { "NOME_REGIONE": "LIGURIA", "NOME_PROVINCIA": "GENOVA", "NOME_COMUNE": "GENOVA", "SPECIE": "CINGHIALE", "DATA_SOSPETTO": null, "DATA_CONFERMA": null, "ESITO": "Negativo", "DATA_PRELIEVO": "2022-06-20", "ZONAZIONE": "ZR", "CASI": 1, "LUOGO_DESCRIZIONE": "RITROVAMENTO SU SEGNALAZIONE", "ANIMALE_INCIDENTATO": "NO", "AREA": 1, "ZONA_RESTRIZIONE": "II" }, "geometry": { "type": "Point", "coordinates": [ 8.95731, 44.406667 ] } },
{ "type": "Feature", "properties": { "NOME_REGIONE": "LIGURIA", "NOME_PROVINCIA": "GENOVA", "NOME_COMUNE": "GENOVA", "SPECIE": "CINGHIALE", "DATA_SOSPETTO": null, "DATA_CONFERMA": null, "ESITO": "Negativo", "DATA_PRELIEVO": "2022-06-20", "ZONAZIONE": "ZR", "CASI": 1, "LUOGO_DESCRIZIONE": "RITROVAMENTO SU SEGNALAZIONE", "ANIMALE_INCIDENTATO": "NO", "AREA": 1, "ZONA_RESTRIZIONE": "II" }, "geometry": { "type": "Point", "coordinates": [ 8.95731, 44.406667 ] } },