{
"type": "FeatureCollection",
"features": [
{ "type": "Feature", "properties": { "REGIONE": "LIGURIA", "PROVINCIA": "GE", "COMUNE": "SANTA MARGHERITA LIGURE", "SPECIE": "CINGHIALE(SELVATICI)", "DATA_SOSPETTO": null, "DATA_CONFERMA": null, "ESITO": "N", "DATA_PRELIEVO": "2022-04-20", "DATA": "2022-04-20" }, "geometry": { "type": "Point", "coordinates": [ 9.207399, 44.311488 ] } },
{ "type": "Feature", "properties": { "REGIONE": "LIGURIA", "PROVINCIA": "GE", "COMUNE": "GENOVA", "SPECIE": "CINGHIALE(SELVATICI)", "DATA_SOSPETTO": null, "DATA_CONFERMA": null, "ESITO": "N", "DATA_PRELIEVO": "2022-04-20", "DATA": "2022-04-20" }, "geometry": { "type": "Point", "coordinates": [ 8.898219, 44.442217 ] } },
{ "type": "Feature", "properties": { "REGIONE": "PIEMONTE", "PROVINCIA": "AL", "COMUNE": "LERMA", "SPECIE": "CINGHIALE(SELVATICI)", "DATA_SOSPETTO": "2022-04-20", "DATA_CONFERMA": "2022-04-21", "ESITO": "P", "DATA_PRELIEVO": null, "DATA": "2022-04-20" }, "geometry": { "type": "Point", "coordinates": [ 8.721435, 44.604188 ] } },
{ "type": "Feature", "properties": { "REGIONE": "PIEMONTE", "PROVINCIA": "AL", "COMUNE": "VALENZA", "SPECIE": "CINGHIALE(SELVATICI)", "DATA_SOSPETTO": null, "DATA_CONFERMA": null, "ESITO": "N", "DATA_PRELIEVO": "2022-04-20", "DATA": "2022-04-20" }, "geometry": { "type": "Point", "coordinates": [ 8.65073, 44.99584 ] } },
{ "type": "Feature", "properties": { "REGIONE": "LIGURIA", "PROVINCIA": "GE", "COMUNE": "GENOVA", "SPECIE": "CINGHIALE(SELVATICI)", "DATA_SOSPETTO": null, "DATA_CONFERMA": null, "ESITO": "N", "DATA_PRELIEVO": "2022-04-20", "DATA": "2022-04-20" }, "geometry": { "type": "Point", "coordinates": [ 8.979645, 44.455168 ] } },
{ "type": "Feature", "properties": { "REGIONE": "PIEMONTE", "PROVINCIA": "AL", "COMUNE": "OVADA", "SPECIE": "CINGHIALE(SELVATICI)", "DATA_SOSPETTO": null, "DATA_CONFERMA": null, "ESITO": "N", "DATA_PRELIEVO": "2022-04-20", "DATA": "2022-04-20" }, "geometry": { "type": "Point", "coordinates": [ 8.653034, 44.639661 ] } },
{ "type": "Feature", "properties": { "REGIONE": "LIGURIA", "PROVINCIA": "GE", "COMUNE": "GENOVA", "SPECIE": "CINGHIALE(SELVATICI)", "DATA_SOSPETTO": null, "DATA_CONFERMA": null, "ESITO": "N", "DATA_PRELIEVO": "2022-04-20", "DATA": "2022-04-20" }, "geometry": { "type": "Point", "coordinates": [ 8.894443, 44.443967 ] } },
{ "type": "Feature", "properties": { "REGIONE": "PIEMONTE", "PROVINCIA": "CN", "COMUNE": "MOROZZO", "SPECIE": "SUINI(DOMESTICI)", "DATA_SOSPETTO": null, "DATA_CONFERMA": null, "ESITO": "N", "DATA_PRELIEVO": "2022-04-20", "DATA": "2022-04-20" }, "geometry": { "type": "Point", "coordinates": [ 7.655414, 44.423568 ] } },
{ "type": "Feature", "properties": { "REGIONE": "PIEMONTE", "PROVINCIA": "AL", "COMUNE": "SAN SALVATORE MONFERRATO", "SPECIE": "CINGHIALE(SELVATICI)", "DATA_SOSPETTO": null, "DATA_CONFERMA": null, "ESITO": "N", "DATA_PRELIEVO": "2022-04-20", "DATA": "2022-04-20" }, "geometry": { "type": "Point", "coordinates": [ 8.535631, 45.015239 ] } },
{ "type": "Feature", "properties": { "REGIONE": "PIEMONTE", "PROVINCIA": "AL", "COMUNE": "SALA MONFERRATO", "SPECIE": "CINGHIALE(SELVATICI)", "DATA_SOSPETTO": null, "DATA_CONFERMA": null, "ESITO": "N", "DATA_PRELIEVO": "2022-04-20", "DATA": "2022-04-20" }, "geometry": { "type": "Point", "coordinates": [ 8.360427, 45.065111 ] } },
{ "type": "Feature", "properties": { "REGIONE": "PIEMONTE", "PROVINCIA": "AT", "COMUNE": "AGLIANO TERME", "SPECIE": "CINGHIALE(SELVATICI)", "DATA_SOSPETTO": null, "DATA_CONFERMA": null, "ESITO": "N", "DATA_PRELIEVO": "2022-04-20", "DATA": "2022-04-20" }, "geometry": { "type": "Point", "coordinates": [ 8.239193, 44.809111 ] } },
{ "type": "Feature", "properties": { "REGIONE": "LIGURIA", "PROVINCIA": "GE", "COMUNE": "GENOVA", "SPECIE": "CINGHIALE(SELVATICI)", "DATA_SOSPETTO": null, "DATA_CONFERMA": null, "ESITO": "N", "DATA_PRELIEVO": "2022-04-20", "DATA": "2022-04-20" }, "geometry": { "type": "Point", "coordinates": [ 8.898219, 44.442217 ] } },
{ "type": "Feature", "properties": { "REGIONE": "PIEMONTE", "PROVINCIA": "CN", "COMUNE": "CUNEO", "SPECIE": "CINGHIALE(SELVATICI)", "DATA_SOSPETTO": null, "DATA_CONFERMA": null, "ESITO": "N", "DATA_PRELIEVO": "2022-04-20", "DATA": "2022-04-20" }, "geometry": { "type": "Point", "coordinates": [ 7.55036, 44.403673 ] } },
{ "type": "Feature", "properties": { "REGIONE": "PIEMONTE", "PROVINCIA": "AT", "COMUNE": "ROCCA D'ARAZZO", "SPECIE": "CINGHIALE(SELVATICI)", "DATA_SOSPETTO": null, "DATA_CONFERMA": null, "ESITO": "N", "DATA_PRELIEVO": "2022-04-19", "DATA": "2022-04-19" }, "geometry": { "type": "Point", "coordinates": [ 8.265051, 44.85661 ] } },
{ "type": "Feature", "properties": { "REGIONE": "LIGURIA", "PROVINCIA": "GE", "COMUNE": "GENOVA", "SPECIE": "CINGHIALE(SELVATICI)", "DATA_SOSPETTO": null, "DATA_CONFERMA": null, "ESITO": "N", "DATA_PRELIEVO": "2022-04-19", "DATA": "2022-04-19" }, "geometry": { "type": "Point", "coordinates": [ 8.977633, 44.440345 ] } },
{ "type": "Feature", "properties": { "REGIONE": "PIEMONTE", "PROVINCIA": "AT", "COMUNE": "ROCCA D'ARAZZO", "SPECIE": "CINGHIALE(SELVATICI)", "DATA_SOSPETTO": null, "DATA_CONFERMA": null, "ESITO": "N", "DATA_PRELIEVO": "2022-04-19", "DATA": "2022-04-19" }, "geometry": { "type": "Point", "coordinates": [ 8.264957, 44.856534 ] } },
{ "type": "Feature", "properties": { "REGIONE": "PIEMONTE", "PROVINCIA": "AT", "COMUNE": "COSTIGLIOLE D'ASTI", "SPECIE": "CINGHIALE(SELVATICI)", "DATA_SOSPETTO": null, "DATA_CONFERMA": null, "ESITO": "N", "DATA_PRELIEVO": "2022-04-19", "DATA": "2022-04-19" }, "geometry": { "type": "Point", "coordinates": [ 8.149976, 44.808513 ] } },
{ "type": "Feature", "properties": { "REGIONE": "PIEMONTE", "PROVINCIA": "AT", "COMUNE": "ROCCA D'ARAZZO", "SPECIE": "CINGHIALE(SELVATICI)", "DATA_SOSPETTO": null, "DATA_CONFERMA": null, "ESITO": "N", "DATA_PRELIEVO": "2022-04-19", "DATA": "2022-04-19" }, "geometry": { "type": "Point", "coordinates": [ 8.264814, 44.856718 ] } },
{ "type": "Feature", "properties": { "REGIONE": "LIGURIA", "PROVINCIA": "GE", "COMUNE": "RAPALLO", "SPECIE": "CINGHIALE(SELVATICI)", "DATA_SOSPETTO": null, "DATA_CONFERMA": null, "ESITO": "N", "DATA_PRELIEVO": "2022-04-19", "DATA": "2022-04-19" }, "geometry": { "type": "Point", "coordinates": [ 9.173164, 44.360177 ] } },
{ "type": "Feature", "properties": { "REGIONE": "LIGURIA", "PROVINCIA": "SV", "COMUNE": "VARAZZE", "SPECIE": "CINGHIALE(SELVATICI)", "DATA_SOSPETTO": null, "DATA_CONFERMA": null, "ESITO": "N", "DATA_PRELIEVO": "2022-04-19", "DATA": "2022-04-19" }, "geometry": { "type": "Point", "coordinates": [ 8.534396, 44.396077 ] } },
{ "type": "Feature", "properties": { "REGIONE": "PIEMONTE", "PROVINCIA": "AT", "COMUNE": "ROCCA D'ARAZZO", "SPECIE": "CINGHIALE(SELVATICI)", "DATA_SOSPETTO": null, "DATA_CONFERMA": null, "ESITO": "N", "DATA_PRELIEVO": "2022-04-19", "DATA": "2022-04-19" }, "geometry": { "type": "Point", "coordinates": [ 8.26511, 44.85651 ] } },
{ "type": "Feature", "properties": { "REGIONE": "PIEMONTE", "PROVINCIA": "AT", "COMUNE": "ROCCA D'ARAZZO", "SPECIE": "CINGHIALE(SELVATICI)", "DATA_SOSPETTO": null, "DATA_CONFERMA": null, "ESITO": "N", "DATA_PRELIEVO": "2022-04-19", "DATA": "2022-04-19" }, "geometry": { "type": "Point", "coordinates": [ 8.26505, 44.85663 ] } },
{ "type": "Feature", "properties": { "REGIONE": "PIEMONTE", "PROVINCIA": "AT", "COMUNE": "ROCCA D'ARAZZO", "SPECIE": "CINGHIALE(SELVATICI)", "DATA_SOSPETTO": null, "DATA_CONFERMA": null, "ESITO": "N", "DATA_PRELIEVO": "2022-04-19", "DATA": "2022-04-19" }, "geometry": { "type": "Point", "coordinates": [ 8.264116, 44.856853 ] } },
{ "type": "Feature", "properties": { "REGIONE": "PIEMONTE", "PROVINCIA": "CN", "COMUNE": "CUNEO", "SPECIE": "CINGHIALE(SELVATICI)", "DATA_SOSPETTO": null, "DATA_CONFERMA": null, "ESITO": "N", "DATA_PRELIEVO": "2022-04-19", "DATA": "2022-04-19" }, "geometry": { "type": "Point", "coordinates": [ 7.587139, 44.424167 ] } },
{ "type": "Feature", "properties": { "REGIONE": "LIGURIA", "PROVINCIA": "GE", "COMUNE": "CHIAVARI", "SPECIE": "CINGHIALE(SELVATICI)", "DATA_SOSPETTO": null, "DATA_CONFERMA": null, "ESITO": "N", "DATA_PRELIEVO": "2022-04-19", "DATA": "2022-04-19" }, "geometry": { "type": "Point", "coordinates": [ 9.314317, 44.329368 ] } },
{ "type": "Feature", "properties": { "REGIONE": "LIGURIA", "PROVINCIA": "GE", "COMUNE": "BUSALLA", "SPECIE": "CINGHIALE(SELVATICI)", "DATA_SOSPETTO": "2022-04-19", "DATA_CONFERMA": "2022-04-20", "ESITO": "P", "DATA_PRELIEVO": null, "DATA": "2022-04-19" }, "geometry": { "type": "Point", "coordinates": [ 8.941819, 44.571885 ] } },
{ "type": "Feature", "properties": { "REGIONE": "LIGURIA", "PROVINCIA": "GE", "COMUNE": "RAPALLO", "SPECIE": "CINGHIALE(SELVATICI)", "DATA_SOSPETTO": null, "DATA_CONFERMA": null, "ESITO": "N", "DATA_PRELIEVO": "2022-04-19", "DATA": "2022-04-19" }, "geometry": { "type": "Point", "coordinates": [ 9.251742, 44.348716 ] } },
{ "type": "Feature", "properties": { "REGIONE": "PIEMONTE", "PROVINCIA": "AL", "COMUNE": "BISTAGNO", "SPECIE": "CINGHIALE(SELVATICI)", "DATA_SOSPETTO": null, "DATA_CONFERMA": null, "ESITO": "N", "DATA_PRELIEVO": "2022-04-18", "DATA": "2022-04-18" }, "geometry": { "type": "Point", "coordinates": [ 8.379028, 44.664228 ] } },
{ "type": "Feature", "properties": { "REGIONE": "PIEMONTE", "PROVINCIA": "AT", "COMUNE": "CALAMANDRANA", "SPECIE": "CINGHIALE(SELVATICI)", "DATA_SOSPETTO": null, "DATA_CONFERMA": null, "ESITO": "N", "DATA_PRELIEVO": "2022-04-18", "DATA": "2022-04-18" }, "geometry": { "type": "Point", "coordinates": [ 8.363658, 44.733097 ] } },
{ "type": "Feature", "properties": { "REGIONE": "PIEMONTE", "PROVINCIA": "AL", "COMUNE": "ARQUATA SCRIVIA", "SPECIE": "CINGHIALE(SELVATICI)", "DATA_SOSPETTO": "2022-04-18", "DATA_CONFERMA": "2022-04-19", "ESITO": "P", "DATA_PRELIEVO": null, "DATA": "2022-04-18" }, "geometry": { "type": "Point", "coordinates": [ 8.876459, 44.678412 ] } },
{ "type": "Feature", "properties": { "REGIONE": "LIGURIA", "PROVINCIA": "GE", "COMUNE": "GENOVA", "SPECIE": "CINGHIALE(SELVATICI)", "DATA_SOSPETTO": null, "DATA_CONFERMA": null, "ESITO": "N", "DATA_PRELIEVO": "2022-04-17", "DATA": "2022-04-17" }, "geometry": { "type": "Point", "coordinates": [ 8.776846, 44.455708 ] } },
{ "type": "Feature", "properties": { "REGIONE": "PIEMONTE", "PROVINCIA": "AL", "COMUNE": "TORTONA", "SPECIE": "CINGHIALE(SELVATICI)", "DATA_SOSPETTO": null, "DATA_CONFERMA": null, "ESITO": "N", "DATA_PRELIEVO": "2022-04-16", "DATA": "2022-04-17" }, "geometry": { "type": "Point", "coordinates": [ 8.829086, 44.840525 ] } },
{ "type": "Feature", "properties": { "REGIONE": "PIEMONTE", "PROVINCIA": "CN", "COMUNE": "CHERASCO", "SPECIE": "CINGHIALE(SELVATICI)", "DATA_SOSPETTO": null, "DATA_CONFERMA": null, "ESITO": "N", "DATA_PRELIEVO": "2022-04-16", "DATA": "2022-04-17" }, "geometry": { "type": "Point", "coordinates": [ 7.869779, 44.635545 ] } },
{ "type": "Feature", "properties": { "REGIONE": "PIEMONTE", "PROVINCIA": "AL", "COMUNE": "TORTONA", "SPECIE": "CINGHIALE(SELVATICI)", "DATA_SOSPETTO": null, "DATA_CONFERMA": null, "ESITO": "N", "DATA_PRELIEVO": "2022-04-17", "DATA": "2022-04-17" }, "geometry": { "type": "Point", "coordinates": [ 8.829086, 44.840586 ] } },
{ "type": "Feature", "properties": { "REGIONE": "LIGURIA", "PROVINCIA": "GE", "COMUNE": "GENOVA", "SPECIE": "CINGHIALE(SELVATICI)", "DATA_SOSPETTO": null, "DATA_CONFERMA": null, "ESITO": "N", "DATA_PRELIEVO": "2022-04-16", "DATA": "2022-04-16" }, "geometry": { "type": "Point", "coordinates": [ 8.95386, 44.41382 ] } },
{ "type": "Feature", "properties": { "REGIONE": "LOMBARDIA", "PROVINCIA": "PV", "COMUNE": "ZERBOLO'", "SPECIE": "CINGHIALE(SELVATICI)", "DATA_SOSPETTO": null, "DATA_CONFERMA": null, "ESITO": "N", "DATA_PRELIEVO": "2022-04-15", "DATA": "2022-04-16" }, "geometry": { "type": "Point", "coordinates": [ 9.013859, 45.206338 ] } },
{ "type": "Feature", "properties": { "REGIONE": "LIGURIA", "PROVINCIA": "GE", "COMUNE": "GENOVA", "SPECIE": "CINGHIALE(SELVATICI)", "DATA_SOSPETTO": null, "DATA_CONFERMA": null, "ESITO": "N", "DATA_PRELIEVO": "2022-04-16", "DATA": "2022-04-16" }, "geometry": { "type": "Point", "coordinates": [ 9.023633, 44.387004 ] } },
{ "type": "Feature", "properties": { "REGIONE": "LOMBARDIA", "PROVINCIA": "PV", "COMUNE": "CAVA MANARA", "SPECIE": "CINGHIALE(SELVATICI)", "DATA_SOSPETTO": null, "DATA_CONFERMA": null, "ESITO": "N", "DATA_PRELIEVO": "2022-04-15", "DATA": "2022-04-16" }, "geometry": { "type": "Point", "coordinates": [ 9.105515, 45.140966 ] } },
{ "type": "Feature", "properties": { "REGIONE": "LOMBARDIA", "PROVINCIA": "PV", "COMUNE": "CAVA MANARA", "SPECIE": "CINGHIALE(SELVATICI)", "DATA_SOSPETTO": null, "DATA_CONFERMA": null, "ESITO": "N", "DATA_PRELIEVO": "2022-04-15", "DATA": "2022-04-16" }, "geometry": { "type": "Point", "coordinates": [ 9.105515, 45.140966 ] } },
{ "type": "Feature", "properties": { "REGIONE": "LIGURIA", "PROVINCIA": "GE", "COMUNE": "BUSALLA", "SPECIE": "CINGHIALE(SELVATICI)", "DATA_SOSPETTO": "2022-04-16", "DATA_CONFERMA": "2022-04-20", "ESITO": "P", "DATA_PRELIEVO": null, "DATA": "2022-04-16" }, "geometry": { "type": "Point", "coordinates": [ 8.943759, 44.569797 ] } },
{ "type": "Feature", "properties": { "REGIONE": "LIGURIA", "PROVINCIA": "GE", "COMUNE": "GENOVA", "SPECIE": "CINGHIALE(SELVATICI)", "DATA_SOSPETTO": null, "DATA_CONFERMA": null, "ESITO": "N", "DATA_PRELIEVO": "2022-04-16", "DATA": "2022-04-16" }, "geometry": { "type": "Point", "coordinates": [ 8.95374, 44.41362 ] } },
{ "type": "Feature", "properties": { "REGIONE": "PIEMONTE", "PROVINCIA": "AL", "COMUNE": "OVADA", "SPECIE": "CINGHIALE(SELVATICI)", "DATA_SOSPETTO": "2022-04-15", "DATA_CONFERMA": "2022-04-19", "ESITO": "P", "DATA_PRELIEVO": null, "DATA": "2022-04-15" }, "geometry": { "type": "Point", "coordinates": [ 8.660635, 44.579593 ] } },
{ "type": "Feature", "properties": { "REGIONE": "PIEMONTE", "PROVINCIA": "AT", "COMUNE": "MONGARDINO", "SPECIE": "CINGHIALE(SELVATICI)", "DATA_SOSPETTO": null, "DATA_CONFERMA": null, "ESITO": "N", "DATA_PRELIEVO": "2022-04-15", "DATA": "2022-04-15" }, "geometry": { "type": "Point", "coordinates": [ 8.214724, 44.840104 ] } },
{ "type": "Feature", "properties": { "REGIONE": "PIEMONTE", "PROVINCIA": "AT", "COMUNE": "MONTEGROSSO D'ASTI", "SPECIE": "CINGHIALE(SELVATICI)", "DATA_SOSPETTO": null, "DATA_CONFERMA": null, "ESITO": "N", "DATA_PRELIEVO": "2022-04-14", "DATA": "2022-04-14" }, "geometry": { "type": "Point", "coordinates": [ 8.237902, 44.821702 ] } },
{ "type": "Feature", "properties": { "REGIONE": "PIEMONTE", "PROVINCIA": "AL", "COMUNE": "POMARO MONFERRATO", "SPECIE": "CINGHIALE(SELVATICI)", "DATA_SOSPETTO": null, "DATA_CONFERMA": null, "ESITO": "N", "DATA_PRELIEVO": "2022-04-14", "DATA": "2022-04-14" }, "geometry": { "type": "Point", "coordinates": [ 8.609105, 45.060396 ] } },
{ "type": "Feature", "properties": { "REGIONE": "LIGURIA", "PROVINCIA": "SV", "COMUNE": "SASSELLO", "SPECIE": "CINGHIALE(SELVATICI)", "DATA_SOSPETTO": null, "DATA_CONFERMA": null, "ESITO": "N", "DATA_PRELIEVO": "2022-04-14", "DATA": "2022-04-14" }, "geometry": { "type": "Point", "coordinates": [ 8.49182, 44.500224 ] } },
{ "type": "Feature", "properties": { "REGIONE": "LIGURIA", "PROVINCIA": "SV", "COMUNE": "COSSERIA", "SPECIE": "CINGHIALE(SELVATICI)", "DATA_SOSPETTO": null, "DATA_CONFERMA": null, "ESITO": "N", "DATA_PRELIEVO": "2022-04-14", "DATA": "2022-04-14" }, "geometry": { "type": "Point", "coordinates": [ 8.240704, 44.372283 ] } },
{ "type": "Feature", "properties": { "REGIONE": "LIGURIA", "PROVINCIA": "GE", "COMUNE": "RECCO", "SPECIE": "CINGHIALE(SELVATICI)", "DATA_SOSPETTO": null, "DATA_CONFERMA": null, "ESITO": "N", "DATA_PRELIEVO": "2022-04-13", "DATA": "2022-04-13" }, "geometry": { "type": "Point", "coordinates": [ 9.148564, 44.369475 ] } },
{ "type": "Feature", "properties": { "REGIONE": "PIEMONTE", "PROVINCIA": "CN", "COMUNE": "FOSSANO", "SPECIE": "SUINI(DOMESTICI)", "DATA_SOSPETTO": null, "DATA_CONFERMA": null, "ESITO": "N", "DATA_PRELIEVO": "2022-04-13", "DATA": "2022-04-13" }, "geometry": { "type": "Point", "coordinates": [ 7.668157, 44.529489 ] } },
{ "type": "Feature", "properties": { "REGIONE": "LIGURIA", "PROVINCIA": "GE", "COMUNE": "RECCO", "SPECIE": "CINGHIALE(SELVATICI)", "DATA_SOSPETTO": null, "DATA_CONFERMA": null, "ESITO": "N", "DATA_PRELIEVO": "2022-04-13", "DATA": "2022-04-13" }, "geometry": { "type": "Point", "coordinates": [ 9.148564, 44.369475 ] } },
{ "type": "Feature", "properties": { "REGIONE": "PIEMONTE", "PROVINCIA": "AL", "COMUNE": "BELFORTE MONFERRATO", "SPECIE": "CINGHIALE(SELVATICI)", "DATA_SOSPETTO": null, "DATA_CONFERMA": null, "ESITO": "N", "DATA_PRELIEVO": "2022-04-12", "DATA": "2022-04-12" }, "geometry": { "type": "Point", "coordinates": [ 8.669384, 44.614502 ] } },
{ "type": "Feature", "properties": { "REGIONE": "PIEMONTE", "PROVINCIA": "CN", "COMUNE": "SALICETO", "SPECIE": "CINGHIALE(SELVATICI)", "DATA_SOSPETTO": null, "DATA_CONFERMA": null, "ESITO": "N", "DATA_PRELIEVO": "2022-04-12", "DATA": "2022-04-12" }, "geometry": { "type": "Point", "coordinates": [ 8.177855, 44.415574 ] } },
{ "type": "Feature", "properties": { "REGIONE": "LIGURIA", "PROVINCIA": "SV", "COMUNE": "CELLE LIGURE", "SPECIE": "CINGHIALE(SELVATICI)", "DATA_SOSPETTO": null, "DATA_CONFERMA": null, "ESITO": "N", "DATA_PRELIEVO": "2022-04-11", "DATA": "2022-04-12" }, "geometry": { "type": "Point", "coordinates": [ 8.540558, 44.34481 ] } },
{ "type": "Feature", "properties": { "REGIONE": "PIEMONTE", "PROVINCIA": "AL", "COMUNE": "CARTOSIO", "SPECIE": "CINGHIALE(SELVATICI)", "DATA_SOSPETTO": null, "DATA_CONFERMA": null, "ESITO": "N", "DATA_PRELIEVO": "2022-04-12", "DATA": "2022-04-12" }, "geometry": { "type": "Point", "coordinates": [ 8.406352, 44.599348 ] } },
{ "type": "Feature", "properties": { "REGIONE": "LIGURIA", "PROVINCIA": "GE", "COMUNE": "MONEGLIA", "SPECIE": "CINGHIALE(SELVATICI)", "DATA_SOSPETTO": null, "DATA_CONFERMA": null, "ESITO": "N", "DATA_PRELIEVO": "2022-04-12", "DATA": "2022-04-12" }, "geometry": { "type": "Point", "coordinates": [ 9.48147, 44.254955 ] } },
{ "type": "Feature", "properties": { "REGIONE": "LIGURIA", "PROVINCIA": "GE", "COMUNE": "CAMOGLI", "SPECIE": "CINGHIALE(SELVATICI)", "DATA_SOSPETTO": null, "DATA_CONFERMA": null, "ESITO": "N", "DATA_PRELIEVO": "2022-04-12", "DATA": "2022-04-12" }, "geometry": { "type": "Point", "coordinates": [ 9.178426, 44.319068 ] } },
{ "type": "Feature", "properties": { "REGIONE": "LOMBARDIA", "PROVINCIA": "PV", "COMUNE": "SANTA GIULETTA", "SPECIE": "CINGHIALE(SELVATICI)", "DATA_SOSPETTO": null, "DATA_CONFERMA": null, "ESITO": "N", "DATA_PRELIEVO": "2022-04-10", "DATA": "2022-04-11" }, "geometry": { "type": "Point", "coordinates": [ 9.181236, 45.035536 ] } },
{ "type": "Feature", "properties": { "REGIONE": "PIEMONTE", "PROVINCIA": "AT", "COMUNE": "ISOLA D'ASTI", "SPECIE": "CINGHIALE(SELVATICI)", "DATA_SOSPETTO": null, "DATA_CONFERMA": null, "ESITO": "N", "DATA_PRELIEVO": "2022-04-10", "DATA": "2022-04-10" }, "geometry": { "type": "Point", "coordinates": [ 8.171049, 44.822688 ] } },
{ "type": "Feature", "properties": { "REGIONE": "LIGURIA", "PROVINCIA": "GE", "COMUNE": "CAMPO LIGURE", "SPECIE": "CINGHIALE(SELVATICI)", "DATA_SOSPETTO": "2022-04-10", "DATA_CONFERMA": "2022-04-12", "ESITO": "P", "DATA_PRELIEVO": null, "DATA": "2022-04-10" }, "geometry": { "type": "Point", "coordinates": [ 8.698118, 44.550035 ] } },
{ "type": "Feature", "properties": { "REGIONE": "LIGURIA", "PROVINCIA": "GE", "COMUNE": "SESTRI LEVANTE", "SPECIE": "CINGHIALE(SELVATICI)", "DATA_SOSPETTO": null, "DATA_CONFERMA": null, "ESITO": "N", "DATA_PRELIEVO": "2022-04-09", "DATA": "2022-04-10" }, "geometry": { "type": "Point", "coordinates": [ 9.421739, 44.259504 ] } },
{ "type": "Feature", "properties": { "REGIONE": "LIGURIA", "PROVINCIA": "GE", "COMUNE": "CAMPO LIGURE", "SPECIE": "CINGHIALE(SELVATICI)", "DATA_SOSPETTO": "2022-04-10", "DATA_CONFERMA": "2022-04-12", "ESITO": "P", "DATA_PRELIEVO": null, "DATA": "2022-04-10" }, "geometry": { "type": "Point", "coordinates": [ 8.698117, 44.550034 ] } },
{ "type": "Feature", "properties": { "REGIONE": "PIEMONTE", "PROVINCIA": "AL", "COMUNE": "OVADA", "SPECIE": "CINGHIALE(SELVATICI)", "DATA_SOSPETTO": null, "DATA_CONFERMA": null, "ESITO": "N", "DATA_PRELIEVO": "2022-04-09", "DATA": "2022-04-09" }, "geometry": { "type": "Point", "coordinates": [ 8.638839, 44.656263 ] } },
{ "type": "Feature", "properties": { "REGIONE": "PIEMONTE", "PROVINCIA": "AT", "COMUNE": "CORSIONE", "SPECIE": "CINGHIALE(SELVATICI)", "DATA_SOSPETTO": null, "DATA_CONFERMA": null, "ESITO": "N", "DATA_PRELIEVO": "2022-04-09", "DATA": "2022-04-09" }, "geometry": { "type": "Point", "coordinates": [ 8.161167, 44.993108 ] } },
{ "type": "Feature", "properties": { "REGIONE": "LIGURIA", "PROVINCIA": "GE", "COMUNE": "SANTA MARGHERITA LIGURE", "SPECIE": "CINGHIALE(SELVATICI)", "DATA_SOSPETTO": null, "DATA_CONFERMA": null, "ESITO": "N", "DATA_PRELIEVO": "2022-04-09", "DATA": "2022-04-09" }, "geometry": { "type": "Point", "coordinates": [ 9.208946, 44.310978 ] } },
{ "type": "Feature", "properties": { "REGIONE": "PIEMONTE", "PROVINCIA": "AL", "COMUNE": "MASIO", "SPECIE": "CINGHIALE(SELVATICI)", "DATA_SOSPETTO": null, "DATA_CONFERMA": null, "ESITO": "N", "DATA_PRELIEVO": "2022-04-09", "DATA": "2022-04-09" }, "geometry": { "type": "Point", "coordinates": [ 8.450048, 44.882162 ] } },
{ "type": "Feature", "properties": { "REGIONE": "LIGURIA", "PROVINCIA": "GE", "COMUNE": "VOBBIA", "SPECIE": "CINGHIALE(SELVATICI)", "DATA_SOSPETTO": null, "DATA_CONFERMA": null, "ESITO": "N", "DATA_PRELIEVO": "2022-04-08", "DATA": "2022-04-09" }, "geometry": { "type": "Point", "coordinates": [ 9.063145, 44.612553 ] } },
{ "type": "Feature", "properties": { "REGIONE": "LIGURIA", "PROVINCIA": "GE", "COMUNE": "MIGNANEGO", "SPECIE": "CINGHIALE(SELVATICI)", "DATA_SOSPETTO": "2022-04-09", "DATA_CONFERMA": "2022-04-14", "ESITO": "P", "DATA_PRELIEVO": null, "DATA": "2022-04-09" }, "geometry": { "type": "Point", "coordinates": [ 8.907805, 44.543277 ] } },
{ "type": "Feature", "properties": { "REGIONE": "PIEMONTE", "PROVINCIA": "AL", "COMUNE": "SILVANO D\\'ORBA", "SPECIE": "CINGHIALE(SELVATICI)", "DATA_SOSPETTO": "2022-04-09", "DATA_CONFERMA": "2022-04-13", "ESITO": "P", "DATA_PRELIEVO": null, "DATA": "2022-04-09" }, "geometry": { "type": "Point", "coordinates": [ 8.695015, 44.666556 ] } },
{ "type": "Feature", "properties": { "REGIONE": "PIEMONTE", "PROVINCIA": "AL", "COMUNE": "BORGORATTO ALESSANDRINO", "SPECIE": "CINGHIALE(SELVATICI)", "DATA_SOSPETTO": null, "DATA_CONFERMA": null, "ESITO": "N", "DATA_PRELIEVO": "2022-04-09", "DATA": "2022-04-09" }, "geometry": { "type": "Point", "coordinates": [ 8.542867, 44.843816 ] } },
{ "type": "Feature", "properties": { "REGIONE": "LIGURIA", "PROVINCIA": "GE", "COMUNE": "BUSALLA", "SPECIE": "CINGHIALE(SELVATICI)", "DATA_SOSPETTO": null, "DATA_CONFERMA": null, "ESITO": "N", "DATA_PRELIEVO": "2022-04-08", "DATA": "2022-04-08" }, "geometry": { "type": "Point", "coordinates": [ 8.940692, 44.564058 ] } },
{ "type": "Feature", "properties": { "REGIONE": "PIEMONTE", "PROVINCIA": "CN", "COMUNE": "CUNEO", "SPECIE": "CINGHIALE(SELVATICI)", "DATA_SOSPETTO": null, "DATA_CONFERMA": null, "ESITO": "N", "DATA_PRELIEVO": "2022-04-08", "DATA": "2022-04-08" }, "geometry": { "type": "Point", "coordinates": [ 7.590565, 44.438646 ] } },
{ "type": "Feature", "properties": { "REGIONE": "PIEMONTE", "PROVINCIA": "CN", "COMUNE": "CERVERE", "SPECIE": "CINGHIALE(SELVATICI)", "DATA_SOSPETTO": null, "DATA_CONFERMA": null, "ESITO": "N", "DATA_PRELIEVO": "2022-04-08", "DATA": "2022-04-08" }, "geometry": { "type": "Point", "coordinates": [ 7.776726, 44.617194 ] } },
{ "type": "Feature", "properties": { "REGIONE": "LIGURIA", "PROVINCIA": "GE", "COMUNE": "GENOVA", "SPECIE": "CINGHIALE(SELVATICI)", "DATA_SOSPETTO": null, "DATA_CONFERMA": null, "ESITO": "N", "DATA_PRELIEVO": "2022-04-08", "DATA": "2022-04-08" }, "geometry": { "type": "Point", "coordinates": [ 9.028179, 44.384234 ] } },
{ "type": "Feature", "properties": { "REGIONE": "LIGURIA", "PROVINCIA": "GE", "COMUNE": "RAPALLO", "SPECIE": "CINGHIALE(SELVATICI)", "DATA_SOSPETTO": null, "DATA_CONFERMA": null, "ESITO": "N", "DATA_PRELIEVO": "2022-04-07", "DATA": "2022-04-07" }, "geometry": { "type": "Point", "coordinates": [ 9.235605, 44.35632 ] } },
{ "type": "Feature", "properties": { "REGIONE": "PIEMONTE", "PROVINCIA": "AT", "COMUNE": "NIZZA MONFERRATO", "SPECIE": "CINGHIALE(SELVATICI)", "DATA_SOSPETTO": null, "DATA_CONFERMA": null, "ESITO": "N", "DATA_PRELIEVO": "2022-04-07", "DATA": "2022-04-07" }, "geometry": { "type": "Point", "coordinates": [ 8.316259, 44.769833 ] } },
{ "type": "Feature", "properties": { "REGIONE": "PIEMONTE", "PROVINCIA": "CN", "COMUNE": "ROCCASPARVERA", "SPECIE": "SUINI(DOMESTICI)", "DATA_SOSPETTO": null, "DATA_CONFERMA": null, "ESITO": "N", "DATA_PRELIEVO": "2022-04-07", "DATA": "2022-04-07" }, "geometry": { "type": "Point", "coordinates": [ 7.436554, 44.338622 ] } },
{ "type": "Feature", "properties": { "REGIONE": "PIEMONTE", "PROVINCIA": "AL", "COMUNE": "ALESSANDRIA", "SPECIE": "CINGHIALE(SELVATICI)", "DATA_SOSPETTO": null, "DATA_CONFERMA": null, "ESITO": "N", "DATA_PRELIEVO": "2022-04-07", "DATA": "2022-04-07" }, "geometry": { "type": "Point", "coordinates": [ 8.613761, 44.943993 ] } },
{ "type": "Feature", "properties": { "REGIONE": "PIEMONTE", "PROVINCIA": "AL", "COMUNE": "CREMOLINO", "SPECIE": "CINGHIALE(SELVATICI)", "DATA_SOSPETTO": null, "DATA_CONFERMA": null, "ESITO": "N", "DATA_PRELIEVO": "2022-04-06", "DATA": "2022-04-06" }, "geometry": { "type": "Point", "coordinates": [ 8.594401, 44.632226 ] } },
{ "type": "Feature", "properties": { "REGIONE": "PIEMONTE", "PROVINCIA": "AT", "COMUNE": "CASTELNUOVO CALCEA", "SPECIE": "CINGHIALE(SELVATICI)", "DATA_SOSPETTO": null, "DATA_CONFERMA": null, "ESITO": "N", "DATA_PRELIEVO": "2022-04-05", "DATA": "2022-04-06" }, "geometry": { "type": "Point", "coordinates": [ 8.289968, 44.788204 ] } },
{ "type": "Feature", "properties": { "REGIONE": "LIGURIA", "PROVINCIA": "GE", "COMUNE": "SORI", "SPECIE": "CINGHIALE(SELVATICI)", "DATA_SOSPETTO": null, "DATA_CONFERMA": null, "ESITO": "N", "DATA_PRELIEVO": "2022-04-06", "DATA": "2022-04-06" }, "geometry": { "type": "Point", "coordinates": [ 9.114249, 44.368249 ] } },
{ "type": "Feature", "properties": { "REGIONE": "PIEMONTE", "PROVINCIA": "AT", "COMUNE": "MOMBERCELLI", "SPECIE": "CINGHIALE(SELVATICI)", "DATA_SOSPETTO": null, "DATA_CONFERMA": null, "ESITO": "N", "DATA_PRELIEVO": "2022-04-06", "DATA": "2022-04-06" }, "geometry": { "type": "Point", "coordinates": [ 8.293646, 44.81396 ] } },
{ "type": "Feature", "properties": { "REGIONE": "PIEMONTE", "PROVINCIA": "AL", "COMUNE": "GAVI", "SPECIE": "CINGHIALE(SELVATICI)", "DATA_SOSPETTO": "2022-04-06", "DATA_CONFERMA": "2022-04-08", "ESITO": "P", "DATA_PRELIEVO": null, "DATA": "2022-04-06" }, "geometry": { "type": "Point", "coordinates": [ 8.840171, 44.686834 ] } },
{ "type": "Feature", "properties": { "REGIONE": "LIGURIA", "PROVINCIA": "GE", "COMUNE": "ROSSIGLIONE", "SPECIE": "CINGHIALE(SELVATICI)", "DATA_SOSPETTO": "2022-04-06", "DATA_CONFERMA": "2022-04-11", "ESITO": "P", "DATA_PRELIEVO": null, "DATA": "2022-04-06" }, "geometry": { "type": "Point", "coordinates": [ 8.683611, 44.563888 ] } },
{ "type": "Feature", "properties": { "REGIONE": "PIEMONTE", "PROVINCIA": "AT", "COMUNE": "MOMBERCELLI", "SPECIE": "CINGHIALE(SELVATICI)", "DATA_SOSPETTO": null, "DATA_CONFERMA": null, "ESITO": "N", "DATA_PRELIEVO": "2022-04-05", "DATA": "2022-04-06" }, "geometry": { "type": "Point", "coordinates": [ 8.291906, 44.810988 ] } },
{ "type": "Feature", "properties": { "REGIONE": "LOMBARDIA", "PROVINCIA": "PV", "COMUNE": "PIEVE DEL CAIRO", "SPECIE": "CINGHIALE(SELVATICI)", "DATA_SOSPETTO": null, "DATA_CONFERMA": null, "ESITO": "N", "DATA_PRELIEVO": "2022-04-04", "DATA": "2022-04-05" }, "geometry": { "type": "Point", "coordinates": [ 8.814228, 45.062427 ] } },
{ "type": "Feature", "properties": { "REGIONE": "PIEMONTE", "PROVINCIA": "AT", "COMUNE": "MONTEGROSSO D'ASTI", "SPECIE": "CINGHIALE(SELVATICI)", "DATA_SOSPETTO": null, "DATA_CONFERMA": null, "ESITO": "N", "DATA_PRELIEVO": "2022-04-05", "DATA": "2022-04-05" }, "geometry": { "type": "Point", "coordinates": [ 8.208145, 44.83002 ] } },
{ "type": "Feature", "properties": { "REGIONE": "PIEMONTE", "PROVINCIA": "AL", "COMUNE": "BORGORATTO ALESSANDRINO", "SPECIE": "SUINI(DOMESTICI)", "DATA_SOSPETTO": null, "DATA_CONFERMA": null, "ESITO": "N", "DATA_PRELIEVO": "2022-04-05", "DATA": "2022-04-05" }, "geometry": { "type": "Point", "coordinates": [ 8.504962, 44.816611 ] } },
{ "type": "Feature", "properties": { "REGIONE": "EMILIA-ROMAGNA", "PROVINCIA": "PC", "COMUNE": "MONTICELLI D'ONGINA", "SPECIE": "SUINI(DOMESTICI)", "DATA_SOSPETTO": null, "DATA_CONFERMA": null, "ESITO": "N", "DATA_PRELIEVO": "2022-04-05", "DATA": "2022-04-05" }, "geometry": { "type": "Point", "coordinates": [ 9.93822, 45.061719 ] } },
{ "type": "Feature", "properties": { "REGIONE": "EMILIA-ROMAGNA", "PROVINCIA": "PC", "COMUNE": "CASTELL'ARQUATO", "SPECIE": "CINGHIALE(SELVATICI)", "DATA_SOSPETTO": null, "DATA_CONFERMA": null, "ESITO": "N", "DATA_PRELIEVO": "2022-04-05", "DATA": "2022-04-05" }, "geometry": { "type": "Point", "coordinates": [ 9.85597, 44.88337 ] } },
{ "type": "Feature", "properties": { "REGIONE": "PIEMONTE", "PROVINCIA": "AT", "COMUNE": "MONTEGROSSO D'ASTI", "SPECIE": "CINGHIALE(SELVATICI)", "DATA_SOSPETTO": null, "DATA_CONFERMA": null, "ESITO": "N", "DATA_PRELIEVO": "2022-04-05", "DATA": "2022-04-05" }, "geometry": { "type": "Point", "coordinates": [ 8.240487, 44.833166 ] } },
{ "type": "Feature", "properties": { "REGIONE": "PIEMONTE", "PROVINCIA": "CN", "COMUNE": "RACCONIGI", "SPECIE": "SUINI(DOMESTICI)", "DATA_SOSPETTO": null, "DATA_CONFERMA": null, "ESITO": "N", "DATA_PRELIEVO": "2022-04-05", "DATA": "2022-04-05" }, "geometry": { "type": "Point", "coordinates": [ 7.713131, 44.756118 ] } },
{ "type": "Feature", "properties": { "REGIONE": "EMILIA-ROMAGNA", "PROVINCIA": "PC", "COMUNE": "MONTICELLI D'ONGINA", "SPECIE": "SUINI(DOMESTICI)", "DATA_SOSPETTO": null, "DATA_CONFERMA": null, "ESITO": "N", "DATA_PRELIEVO": "2022-04-05", "DATA": "2022-04-05" }, "geometry": { "type": "Point", "coordinates": [ 9.93822, 45.061719 ] } },
{ "type": "Feature", "properties": { "REGIONE": "LIGURIA", "PROVINCIA": "GE", "COMUNE": "GENOVA", "SPECIE": "CINGHIALE(SELVATICI)", "DATA_SOSPETTO": null, "DATA_CONFERMA": null, "ESITO": "N", "DATA_PRELIEVO": "2022-04-05", "DATA": "2022-04-05" }, "geometry": { "type": "Point", "coordinates": [ 8.937349, 44.411957 ] } },
{ "type": "Feature", "properties": { "REGIONE": "LOMBARDIA", "PROVINCIA": "PV", "COMUNE": "GODIASCO", "SPECIE": "CINGHIALE(SELVATICI)", "DATA_SOSPETTO": null, "DATA_CONFERMA": null, "ESITO": "N", "DATA_PRELIEVO": "2022-04-04", "DATA": "2022-04-05" }, "geometry": { "type": "Point", "coordinates": [ 9.056368, 44.895933 ] } },
{ "type": "Feature", "properties": { "REGIONE": "LOMBARDIA", "PROVINCIA": "PV", "COMUNE": "BADIA PAVESE", "SPECIE": "CINGHIALE(SELVATICI)", "DATA_SOSPETTO": null, "DATA_CONFERMA": null, "ESITO": "N", "DATA_PRELIEVO": "2022-04-03", "DATA": "2022-04-04" }, "geometry": { "type": "Point", "coordinates": [ 9.468869, 45.121747 ] } },
{ "type": "Feature", "properties": { "REGIONE": "LIGURIA", "PROVINCIA": "SV", "COMUNE": "ANDORA", "SPECIE": "CINGHIALE(SELVATICI)", "DATA_SOSPETTO": null, "DATA_CONFERMA": null, "ESITO": "N", "DATA_PRELIEVO": "2022-04-03", "DATA": "2022-04-04" }, "geometry": { "type": "Point", "coordinates": [ 8.136151, 43.952486 ] } },
{ "type": "Feature", "properties": { "REGIONE": "LIGURIA", "PROVINCIA": "SV", "COMUNE": "ANDORA", "SPECIE": "CINGHIALE(SELVATICI)", "DATA_SOSPETTO": null, "DATA_CONFERMA": null, "ESITO": "N", "DATA_PRELIEVO": "2022-04-03", "DATA": "2022-04-04" }, "geometry": { "type": "Point", "coordinates": [ 8.136151, 43.952486 ] } },
{ "type": "Feature", "properties": { "REGIONE": "LIGURIA", "PROVINCIA": "SV", "COMUNE": "ANDORA", "SPECIE": "CINGHIALE(SELVATICI)", "DATA_SOSPETTO": null, "DATA_CONFERMA": null, "ESITO": "N", "DATA_PRELIEVO": "2022-04-03", "DATA": "2022-04-04" }, "geometry": { "type": "Point", "coordinates": [ 8.136151, 43.952486 ] } },
{ "type": "Feature", "properties": { "REGIONE": "PIEMONTE", "PROVINCIA": "AL", "COMUNE": "VOLTAGGIO", "SPECIE": "CINGHIALE(SELVATICI)", "DATA_SOSPETTO": "2022-04-04", "DATA_CONFERMA": "2022-04-06", "ESITO": "P", "DATA_PRELIEVO": null, "DATA": "2022-04-04" }, "geometry": { "type": "Point", "coordinates": [ 8.853642, 44.588625 ] } },
{ "type": "Feature", "properties": { "REGIONE": "PIEMONTE", "PROVINCIA": "AT", "COMUNE": "SAN DAMIANO D'ASTI", "SPECIE": "CINGHIALE(SELVATICI)", "DATA_SOSPETTO": null, "DATA_CONFERMA": null, "ESITO": "N", "DATA_PRELIEVO": "2022-04-04", "DATA": "2022-04-04" }, "geometry": { "type": "Point", "coordinates": [ 8.06065, 44.85384 ] } },
{ "type": "Feature", "properties": { "REGIONE": "LIGURIA", "PROVINCIA": "SV", "COMUNE": "ANDORA", "SPECIE": "CINGHIALE(SELVATICI)", "DATA_SOSPETTO": null, "DATA_CONFERMA": null, "ESITO": "N", "DATA_PRELIEVO": "2022-04-03", "DATA": "2022-04-04" }, "geometry": { "type": "Point", "coordinates": [ 8.136151, 43.952486 ] } },
{ "type": "Feature", "properties": { "REGIONE": "PIEMONTE", "PROVINCIA": "AL", "COMUNE": "PONZONE", "SPECIE": "CINGHIALE(SELVATICI)", "DATA_SOSPETTO": null, "DATA_CONFERMA": null, "ESITO": "N", "DATA_PRELIEVO": "2022-04-04", "DATA": "2022-04-04" }, "geometry": { "type": "Point", "coordinates": [ 8.528273, 44.536491 ] } },
{ "type": "Feature", "properties": { "REGIONE": "LIGURIA", "PROVINCIA": "SV", "COMUNE": "ANDORA", "SPECIE": "CINGHIALE(SELVATICI)", "DATA_SOSPETTO": null, "DATA_CONFERMA": null, "ESITO": "N", "DATA_PRELIEVO": "2022-04-03", "DATA": "2022-04-04" }, "geometry": { "type": "Point", "coordinates": [ 8.136151, 43.952486 ] } },
{ "type": "Feature", "properties": { "REGIONE": "LIGURIA", "PROVINCIA": "SV", "COMUNE": "ANDORA", "SPECIE": "CINGHIALE(SELVATICI)", "DATA_SOSPETTO": null, "DATA_CONFERMA": null, "ESITO": "N", "DATA_PRELIEVO": "2022-04-03", "DATA": "2022-04-04" }, "geometry": { "type": "Point", "coordinates": [ 8.136151, 43.952486 ] } },
{ "type": "Feature", "properties": { "REGIONE": "PIEMONTE", "PROVINCIA": "AL", "COMUNE": "OVADA", "SPECIE": "CINGHIALE(SELVATICI)", "DATA_SOSPETTO": "2022-04-03", "DATA_CONFERMA": "2022-04-05", "ESITO": "P", "DATA_PRELIEVO": null, "DATA": "2022-04-03" }, "geometry": { "type": "Point", "coordinates": [ 8.611996, 44.622811 ] } },
{ "type": "Feature", "properties": { "REGIONE": "PIEMONTE", "PROVINCIA": "AL", "COMUNE": "MOLARE", "SPECIE": "CINGHIALE(SELVATICI)", "DATA_SOSPETTO": "2022-04-02", "DATA_CONFERMA": "2022-04-05", "ESITO": "P", "DATA_PRELIEVO": null, "DATA": "2022-04-02" }, "geometry": { "type": "Point", "coordinates": [ 8.598204, 44.600222 ] } },
{ "type": "Feature", "properties": { "REGIONE": "LIGURIA", "PROVINCIA": "GE", "COMUNE": "AVEGNO", "SPECIE": "SUINI(DOMESTICI)", "DATA_SOSPETTO": null, "DATA_CONFERMA": null, "ESITO": "N", "DATA_PRELIEVO": "2022-04-01", "DATA": "2022-04-02" }, "geometry": { "type": "Point", "coordinates": [ 9.15955, 44.38271 ] } },
{ "type": "Feature", "properties": { "REGIONE": "PIEMONTE", "PROVINCIA": "AL", "COMUNE": "MOLARE", "SPECIE": "CINGHIALE(SELVATICI)", "DATA_SOSPETTO": "2022-04-02", "DATA_CONFERMA": "2022-04-05", "ESITO": "P", "DATA_PRELIEVO": null, "DATA": "2022-04-02" }, "geometry": { "type": "Point", "coordinates": [ 8.598462, 44.600038 ] } },
{ "type": "Feature", "properties": { "REGIONE": "PIEMONTE", "PROVINCIA": "AL", "COMUNE": "SILVANO D\\'ORBA", "SPECIE": "CINGHIALE(SELVATICI)", "DATA_SOSPETTO": "2022-04-02", "DATA_CONFERMA": "2022-04-05", "ESITO": "P", "DATA_PRELIEVO": null, "DATA": "2022-04-02" }, "geometry": { "type": "Point", "coordinates": [ 8.696067, 44.667365 ] } },
{ "type": "Feature", "properties": { "REGIONE": "LIGURIA", "PROVINCIA": "GE", "COMUNE": "GENOVA", "SPECIE": "CINGHIALE(SELVATICI)", "DATA_SOSPETTO": null, "DATA_CONFERMA": null, "ESITO": "N", "DATA_PRELIEVO": "2022-03-31", "DATA": "2022-04-01" }, "geometry": { "type": "Point", "coordinates": [ 8.951135, 44.40843 ] } },
{ "type": "Feature", "properties": { "REGIONE": "PIEMONTE", "PROVINCIA": "AL", "COMUNE": "ALESSANDRIA", "SPECIE": "CINGHIALE(SELVATICI)", "DATA_SOSPETTO": null, "DATA_CONFERMA": null, "ESITO": "N", "DATA_PRELIEVO": "2022-04-01", "DATA": "2022-04-01" }, "geometry": { "type": "Point", "coordinates": [ 8.621893, 44.940393 ] } },
{ "type": "Feature", "properties": { "REGIONE": "LIGURIA", "PROVINCIA": "GE", "COMUNE": "RONCO SCRIVIA", "SPECIE": "CINGHIALE(SELVATICI)", "DATA_SOSPETTO": "2022-04-01", "DATA_CONFERMA": "2022-04-06", "ESITO": "P", "DATA_PRELIEVO": null, "DATA": "2022-04-01" }, "geometry": { "type": "Point", "coordinates": [ 8.948103, 44.611888 ] } },
{ "type": "Feature", "properties": { "REGIONE": "LIGURIA", "PROVINCIA": "GE", "COMUNE": "RONCO SCRIVIA", "SPECIE": "CINGHIALE(SELVATICI)", "DATA_SOSPETTO": null, "DATA_CONFERMA": null, "ESITO": "N", "DATA_PRELIEVO": "2022-03-31", "DATA": "2022-03-31" }, "geometry": { "type": "Point", "coordinates": [ 8.94008, 44.5901 ] } },
{ "type": "Feature", "properties": { "REGIONE": "PIEMONTE", "PROVINCIA": "AL", "COMUNE": "OVADA", "SPECIE": "CINGHIALE(SELVATICI)", "DATA_SOSPETTO": "2022-03-31", "DATA_CONFERMA": "2022-04-01", "ESITO": "P", "DATA_PRELIEVO": null, "DATA": "2022-03-31" }, "geometry": { "type": "Point", "coordinates": [ 8.647229, 44.613188 ] } },
{ "type": "Feature", "properties": { "REGIONE": "PIEMONTE", "PROVINCIA": "AT", "COMUNE": "BUBBIO", "SPECIE": "CINGHIALE(SELVATICI)", "DATA_SOSPETTO": null, "DATA_CONFERMA": null, "ESITO": "N", "DATA_PRELIEVO": "2022-03-31", "DATA": "2022-03-31" }, "geometry": { "type": "Point", "coordinates": [ 8.311111, 44.657278 ] } },
{ "type": "Feature", "properties": { "REGIONE": "PIEMONTE", "PROVINCIA": "AL", "COMUNE": "FRACONALTO", "SPECIE": "CINGHIALE(SELVATICI)", "DATA_SOSPETTO": "2022-03-31", "DATA_CONFERMA": "2022-04-01", "ESITO": "P", "DATA_PRELIEVO": null, "DATA": "2022-03-31" }, "geometry": { "type": "Point", "coordinates": [ 8.903324, 44.598375 ] } },
{ "type": "Feature", "properties": { "REGIONE": "PIEMONTE", "PROVINCIA": "AT", "COMUNE": "CORTIGLIONE", "SPECIE": "CINGHIALE(SELVATICI)", "DATA_SOSPETTO": null, "DATA_CONFERMA": null, "ESITO": "N", "DATA_PRELIEVO": "2022-03-31", "DATA": "2022-03-31" }, "geometry": { "type": "Point", "coordinates": [ 8.372263, 44.833561 ] } },
{ "type": "Feature", "properties": { "REGIONE": "PIEMONTE", "PROVINCIA": "AT", "COMUNE": "CORTIGLIONE", "SPECIE": "CINGHIALE(SELVATICI)", "DATA_SOSPETTO": null, "DATA_CONFERMA": null, "ESITO": "N", "DATA_PRELIEVO": "2022-03-31", "DATA": "2022-03-31" }, "geometry": { "type": "Point", "coordinates": [ 8.367374, 44.832937 ] } },
{ "type": "Feature", "properties": { "REGIONE": "LIGURIA", "PROVINCIA": "GE", "COMUNE": "RONCO SCRIVIA", "SPECIE": "CINGHIALE(SELVATICI)", "DATA_SOSPETTO": "2022-03-31", "DATA_CONFERMA": "2022-04-05", "ESITO": "P", "DATA_PRELIEVO": null, "DATA": "2022-03-31" }, "geometry": { "type": "Point", "coordinates": [ 8.94008, 44.5901 ] } },
{ "type": "Feature", "properties": { "REGIONE": "PIEMONTE", "PROVINCIA": "AL", "COMUNE": "PRASCO", "SPECIE": "CINGHIALE(SELVATICI)", "DATA_SOSPETTO": "2022-03-30", "DATA_CONFERMA": "2022-04-01", "ESITO": "P", "DATA_PRELIEVO": null, "DATA": "2022-03-30" }, "geometry": { "type": "Point", "coordinates": [ 8.555971, 44.642308 ] } },
{ "type": "Feature", "properties": { "REGIONE": "LIGURIA", "PROVINCIA": "GE", "COMUNE": "GENOVA", "SPECIE": "CINGHIALE(SELVATICI)", "DATA_SOSPETTO": null, "DATA_CONFERMA": null, "ESITO": "N", "DATA_PRELIEVO": "2022-03-29", "DATA": "2022-03-30" }, "geometry": { "type": "Point", "coordinates": [ 8.950768, 44.408193 ] } },
{ "type": "Feature", "properties": { "REGIONE": "LIGURIA", "PROVINCIA": "GE", "COMUNE": "GENOVA", "SPECIE": "CINGHIALE(SELVATICI)", "DATA_SOSPETTO": null, "DATA_CONFERMA": null, "ESITO": "N", "DATA_PRELIEVO": "2022-03-29", "DATA": "2022-03-30" }, "geometry": { "type": "Point", "coordinates": [ 9.002064, 44.419401 ] } },
{ "type": "Feature", "properties": { "REGIONE": "LIGURIA", "PROVINCIA": "GE", "COMUNE": "GENOVA", "SPECIE": "CINGHIALE(SELVATICI)", "DATA_SOSPETTO": null, "DATA_CONFERMA": null, "ESITO": "N", "DATA_PRELIEVO": "2022-03-29", "DATA": "2022-03-30" }, "geometry": { "type": "Point", "coordinates": [ 8.954131, 44.402093 ] } },
{ "type": "Feature", "properties": { "REGIONE": "LIGURIA", "PROVINCIA": "GE", "COMUNE": "GENOVA", "SPECIE": "CINGHIALE(SELVATICI)", "DATA_SOSPETTO": null, "DATA_CONFERMA": null, "ESITO": "N", "DATA_PRELIEVO": "2022-03-30", "DATA": "2022-03-30" }, "geometry": { "type": "Point", "coordinates": [ 8.930277, 44.428055 ] } },
{ "type": "Feature", "properties": { "REGIONE": "EMILIA-ROMAGNA", "PROVINCIA": "PC", "COMUNE": "OTTONE", "SPECIE": "CINGHIALE(SELVATICI)", "DATA_SOSPETTO": null, "DATA_CONFERMA": null, "ESITO": "N", "DATA_PRELIEVO": "2022-03-30", "DATA": "2022-03-30" }, "geometry": { "type": "Point", "coordinates": [ 9.321, 44.652 ] } },
{ "type": "Feature", "properties": { "REGIONE": "PIEMONTE", "PROVINCIA": "CN", "COMUNE": "GRINZANE CAVOUR", "SPECIE": "CINGHIALE(SELVATICI)", "DATA_SOSPETTO": null, "DATA_CONFERMA": null, "ESITO": "N", "DATA_PRELIEVO": "2022-03-30", "DATA": "2022-03-30" }, "geometry": { "type": "Point", "coordinates": [ 7.991386, 44.666562 ] } },
{ "type": "Feature", "properties": { "REGIONE": "PIEMONTE", "PROVINCIA": "CN", "COMUNE": "CRAVANZANA", "SPECIE": "CINGHIALE(SELVATICI)", "DATA_SOSPETTO": null, "DATA_CONFERMA": null, "ESITO": "N", "DATA_PRELIEVO": "2022-03-30", "DATA": "2022-03-30" }, "geometry": { "type": "Point", "coordinates": [ 8.116614, 44.558661 ] } },
{ "type": "Feature", "properties": { "REGIONE": "PIEMONTE", "PROVINCIA": "AL", "COMUNE": "MORNESE", "SPECIE": "CINGHIALE(SELVATICI)", "DATA_SOSPETTO": "2022-03-29", "DATA_CONFERMA": "2022-03-30", "ESITO": "P", "DATA_PRELIEVO": null, "DATA": "2022-03-29" }, "geometry": { "type": "Point", "coordinates": [ 8.756481, 44.622632 ] } },
{ "type": "Feature", "properties": { "REGIONE": "PIEMONTE", "PROVINCIA": "AL", "COMUNE": "GAVI", "SPECIE": "CINGHIALE(SELVATICI)", "DATA_SOSPETTO": "2022-03-29", "DATA_CONFERMA": "2022-03-30", "ESITO": "P", "DATA_PRELIEVO": null, "DATA": "2022-03-29" }, "geometry": { "type": "Point", "coordinates": [ 8.781174, 44.699303 ] } },
{ "type": "Feature", "properties": { "REGIONE": "PIEMONTE", "PROVINCIA": "AL", "COMUNE": "ARQUATA SCRIVIA", "SPECIE": "CINGHIALE(SELVATICI)", "DATA_SOSPETTO": "2022-03-29", "DATA_CONFERMA": "2022-03-30", "ESITO": "P", "DATA_PRELIEVO": null, "DATA": "2022-03-29" }, "geometry": { "type": "Point", "coordinates": [ 8.870942, 44.650387 ] } },
{ "type": "Feature", "properties": { "REGIONE": "PIEMONTE", "PROVINCIA": "AL", "COMUNE": "ARQUATA SCRIVIA", "SPECIE": "CINGHIALE(SELVATICI)", "DATA_SOSPETTO": "2022-03-29", "DATA_CONFERMA": "2022-03-30", "ESITO": "P", "DATA_PRELIEVO": null, "DATA": "2022-03-29" }, "geometry": { "type": "Point", "coordinates": [ 8.880965, 44.682562 ] } },
{ "type": "Feature", "properties": { "REGIONE": "PIEMONTE", "PROVINCIA": "CN", "COMUNE": "RACCONIGI", "SPECIE": "SUINI(DOMESTICI)", "DATA_SOSPETTO": null, "DATA_CONFERMA": null, "ESITO": "N", "DATA_PRELIEVO": "2022-03-29", "DATA": "2022-03-29" }, "geometry": { "type": "Point", "coordinates": [ 7.713131, 44.756118 ] } },
{ "type": "Feature", "properties": { "REGIONE": "PIEMONTE", "PROVINCIA": "AL", "COMUNE": "BISTAGNO", "SPECIE": "CINGHIALE(SELVATICI)", "DATA_SOSPETTO": null, "DATA_CONFERMA": null, "ESITO": "N", "DATA_PRELIEVO": "2022-03-29", "DATA": "2022-03-29" }, "geometry": { "type": "Point", "coordinates": [ 8.359458, 44.661298 ] } },
{ "type": "Feature", "properties": { "REGIONE": "LIGURIA", "PROVINCIA": "GE", "COMUNE": "GENOVA", "SPECIE": "CINGHIALE(SELVATICI)", "DATA_SOSPETTO": null, "DATA_CONFERMA": null, "ESITO": "N", "DATA_PRELIEVO": "2022-03-28", "DATA": "2022-03-29" }, "geometry": { "type": "Point", "coordinates": [ 8.975337, 44.416423 ] } },
{ "type": "Feature", "properties": { "REGIONE": "PIEMONTE", "PROVINCIA": "CN", "COMUNE": "NARZOLE", "SPECIE": "CINGHIALE(SELVATICI)", "DATA_SOSPETTO": null, "DATA_CONFERMA": null, "ESITO": "N", "DATA_PRELIEVO": "2022-03-28", "DATA": "2022-03-28" }, "geometry": { "type": "Point", "coordinates": [ 7.886946, 44.591663 ] } },
{ "type": "Feature", "properties": { "REGIONE": "PIEMONTE", "PROVINCIA": "AL", "COMUNE": "VOLTAGGIO", "SPECIE": "CINGHIALE(SELVATICI)", "DATA_SOSPETTO": "2022-03-28", "DATA_CONFERMA": "2022-03-30", "ESITO": "P", "DATA_PRELIEVO": null, "DATA": "2022-03-28" }, "geometry": { "type": "Point", "coordinates": [ 8.86054, 44.596525 ] } },
{ "type": "Feature", "properties": { "REGIONE": "LIGURIA", "PROVINCIA": "GE", "COMUNE": "BUSALLA", "SPECIE": "CINGHIALE(SELVATICI)", "DATA_SOSPETTO": null, "DATA_CONFERMA": null, "ESITO": "N", "DATA_PRELIEVO": "2022-03-28", "DATA": "2022-03-28" }, "geometry": { "type": "Point", "coordinates": [ 8.979217, 44.582396 ] } },
{ "type": "Feature", "properties": { "REGIONE": "PIEMONTE", "PROVINCIA": "AL", "COMUNE": "MOLARE", "SPECIE": "CINGHIALE(SELVATICI)", "DATA_SOSPETTO": "2022-03-28", "DATA_CONFERMA": "2022-03-30", "ESITO": "P", "DATA_PRELIEVO": null, "DATA": "2022-03-28" }, "geometry": { "type": "Point", "coordinates": [ 8.588301, 44.582909 ] } },
{ "type": "Feature", "properties": { "REGIONE": "LIGURIA", "PROVINCIA": "GE", "COMUNE": "GENOVA", "SPECIE": "CINGHIALE(SELVATICI)", "DATA_SOSPETTO": null, "DATA_CONFERMA": null, "ESITO": "N", "DATA_PRELIEVO": "2022-03-25", "DATA": "2022-03-26" }, "geometry": { "type": "Point", "coordinates": [ 9.015227, 44.44914 ] } },
{ "type": "Feature", "properties": { "REGIONE": "PIEMONTE", "PROVINCIA": "AT", "COMUNE": "LOAZZOLO", "SPECIE": "CINGHIALE(SELVATICI)", "DATA_SOSPETTO": null, "DATA_CONFERMA": null, "ESITO": "N", "DATA_PRELIEVO": "2022-03-26", "DATA": "2022-03-26" }, "geometry": { "type": "Point", "coordinates": [ 8.267, 44.682145 ] } },
{ "type": "Feature", "properties": { "REGIONE": "PIEMONTE", "PROVINCIA": "AT", "COMUNE": "CALOSSO", "SPECIE": "CINGHIALE(SELVATICI)", "DATA_SOSPETTO": null, "DATA_CONFERMA": null, "ESITO": "N", "DATA_PRELIEVO": "2022-03-26", "DATA": "2022-03-26" }, "geometry": { "type": "Point", "coordinates": [ 8.22955, 44.73827 ] } },
{ "type": "Feature", "properties": { "REGIONE": "LIGURIA", "PROVINCIA": "SV", "COMUNE": "BERGEGGI", "SPECIE": "CINGHIALE(SELVATICI)", "DATA_SOSPETTO": null, "DATA_CONFERMA": null, "ESITO": "N", "DATA_PRELIEVO": "2022-03-25", "DATA": "2022-03-26" }, "geometry": { "type": "Point", "coordinates": [ 8.442151, 44.24186 ] } },
{ "type": "Feature", "properties": { "REGIONE": "LIGURIA", "PROVINCIA": "GE", "COMUNE": "RECCO", "SPECIE": "CINGHIALE(SELVATICI)", "DATA_SOSPETTO": null, "DATA_CONFERMA": null, "ESITO": "N", "DATA_PRELIEVO": "2022-03-25", "DATA": "2022-03-25" }, "geometry": { "type": "Point", "coordinates": [ 9.156526, 44.3808 ] } },
{ "type": "Feature", "properties": { "REGIONE": "LIGURIA", "PROVINCIA": "GE", "COMUNE": "BUSALLA", "SPECIE": "CINGHIALE(SELVATICI)", "DATA_SOSPETTO": null, "DATA_CONFERMA": null, "ESITO": "N", "DATA_PRELIEVO": "2022-03-25", "DATA": "2022-03-25" }, "geometry": { "type": "Point", "coordinates": [ 8.9725, 44.58915 ] } },
{ "type": "Feature", "properties": { "REGIONE": "PIEMONTE", "PROVINCIA": "AL", "COMUNE": "MERANA", "SPECIE": "CINGHIALE(SELVATICI)", "DATA_SOSPETTO": null, "DATA_CONFERMA": null, "ESITO": "N", "DATA_PRELIEVO": "2022-03-25", "DATA": "2022-03-25" }, "geometry": { "type": "Point", "coordinates": [ 8.307415, 44.507574 ] } },
{ "type": "Feature", "properties": { "REGIONE": "PIEMONTE", "PROVINCIA": "AT", "COMUNE": "VINCHIO", "SPECIE": "CINGHIALE(SELVATICI)", "DATA_SOSPETTO": null, "DATA_CONFERMA": null, "ESITO": "N", "DATA_PRELIEVO": "2022-03-25", "DATA": "2022-03-25" }, "geometry": { "type": "Point", "coordinates": [ 8.3246, 44.806638 ] } },
{ "type": "Feature", "properties": { "REGIONE": "PIEMONTE", "PROVINCIA": "AT", "COMUNE": "CORTIGLIONE", "SPECIE": "CINGHIALE(SELVATICI)", "DATA_SOSPETTO": null, "DATA_CONFERMA": null, "ESITO": "N", "DATA_PRELIEVO": "2022-03-25", "DATA": "2022-03-25" }, "geometry": { "type": "Point", "coordinates": [ 8.372258, 44.830021 ] } },
{ "type": "Feature", "properties": { "REGIONE": "PIEMONTE", "PROVINCIA": "AL", "COMUNE": "SERRAVALLE SCRIVIA", "SPECIE": "CINGHIALE(SELVATICI)", "DATA_SOSPETTO": null, "DATA_CONFERMA": null, "ESITO": "N", "DATA_PRELIEVO": "2022-03-25", "DATA": "2022-03-25" }, "geometry": { "type": "Point", "coordinates": [ 8.848828, 44.751208 ] } },
{ "type": "Feature", "properties": { "REGIONE": "LIGURIA", "PROVINCIA": "GE", "COMUNE": "SORI", "SPECIE": "CINGHIALE(SELVATICI)", "DATA_SOSPETTO": null, "DATA_CONFERMA": null, "ESITO": "N", "DATA_PRELIEVO": "2022-03-23", "DATA": "2022-03-24" }, "geometry": { "type": "Point", "coordinates": [ 9.114249, 44.368249 ] } },
{ "type": "Feature", "properties": { "REGIONE": "LIGURIA", "PROVINCIA": "GE", "COMUNE": "SORI", "SPECIE": "CINGHIALE(SELVATICI)", "DATA_SOSPETTO": null, "DATA_CONFERMA": null, "ESITO": "N", "DATA_PRELIEVO": "2022-03-23", "DATA": "2022-03-24" }, "geometry": { "type": "Point", "coordinates": [ 9.114249, 44.368249 ] } },
{ "type": "Feature", "properties": { "REGIONE": "LIGURIA", "PROVINCIA": "SV", "COMUNE": "TOIRANO", "SPECIE": "CINGHIALE(SELVATICI)", "DATA_SOSPETTO": null, "DATA_CONFERMA": null, "ESITO": "N", "DATA_PRELIEVO": "2022-03-24", "DATA": "2022-03-24" }, "geometry": { "type": "Point", "coordinates": [ 8.15971, 44.140258 ] } },
{ "type": "Feature", "properties": { "REGIONE": "LIGURIA", "PROVINCIA": "GE", "COMUNE": "FONTANIGORDA", "SPECIE": "CINGHIALE(SELVATICI)", "DATA_SOSPETTO": null, "DATA_CONFERMA": null, "ESITO": "N", "DATA_PRELIEVO": "2022-03-22", "DATA": "2022-03-23" }, "geometry": { "type": "Point", "coordinates": [ 9.291295, 44.547021 ] } },
{ "type": "Feature", "properties": { "REGIONE": "PIEMONTE", "PROVINCIA": "AL", "COMUNE": "LERMA", "SPECIE": "CINGHIALE(SELVATICI)", "DATA_SOSPETTO": "2022-03-23", "DATA_CONFERMA": "2022-03-25", "ESITO": "P", "DATA_PRELIEVO": null, "DATA": "2022-03-23" }, "geometry": { "type": "Point", "coordinates": [ 8.727802, 44.651758 ] } },
{ "type": "Feature", "properties": { "REGIONE": "PIEMONTE", "PROVINCIA": "AT", "COMUNE": "CORTIGLIONE", "SPECIE": "CINGHIALE(SELVATICI)", "DATA_SOSPETTO": null, "DATA_CONFERMA": null, "ESITO": "N", "DATA_PRELIEVO": "2022-03-23", "DATA": "2022-03-23" }, "geometry": { "type": "Point", "coordinates": [ 8.367016, 44.832004 ] } },
{ "type": "Feature", "properties": { "REGIONE": "PIEMONTE", "PROVINCIA": "AL", "COMUNE": "RIVARONE", "SPECIE": "CINGHIALE(SELVATICI)", "DATA_SOSPETTO": null, "DATA_CONFERMA": null, "ESITO": "N", "DATA_PRELIEVO": "2022-03-23", "DATA": "2022-03-23" }, "geometry": { "type": "Point", "coordinates": [ 8.735553, 44.9797 ] } },
{ "type": "Feature", "properties": { "REGIONE": "EMILIA-ROMAGNA", "PROVINCIA": "PC", "COMUNE": "CASTELL'ARQUATO", "SPECIE": "CINGHIALE(SELVATICI)", "DATA_SOSPETTO": null, "DATA_CONFERMA": null, "ESITO": "N", "DATA_PRELIEVO": "2022-03-23", "DATA": "2022-03-23" }, "geometry": { "type": "Point", "coordinates": [ 9.85597, 44.88337 ] } },
{ "type": "Feature", "properties": { "REGIONE": "PIEMONTE", "PROVINCIA": "AL", "COMUNE": "TORTONA", "SPECIE": "CINGHIALE(SELVATICI)", "DATA_SOSPETTO": null, "DATA_CONFERMA": null, "ESITO": "N", "DATA_PRELIEVO": "2022-03-23", "DATA": "2022-03-23" }, "geometry": { "type": "Point", "coordinates": [ 8.862893, 44.888296 ] } },
{ "type": "Feature", "properties": { "REGIONE": "EMILIA-ROMAGNA", "PROVINCIA": "PC", "COMUNE": "CARPANETO PIACENTINO", "SPECIE": "CINGHIALE(SELVATICI)", "DATA_SOSPETTO": null, "DATA_CONFERMA": null, "ESITO": "N", "DATA_PRELIEVO": "2022-03-23", "DATA": "2022-03-23" }, "geometry": { "type": "Point", "coordinates": [ 9.784312, 44.887255 ] } },
{ "type": "Feature", "properties": { "REGIONE": "LIGURIA", "PROVINCIA": "GE", "COMUNE": "USCIO", "SPECIE": "CINGHIALE(SELVATICI)", "DATA_SOSPETTO": null, "DATA_CONFERMA": null, "ESITO": "N", "DATA_PRELIEVO": "2022-03-22", "DATA": "2022-03-22" }, "geometry": { "type": "Point", "coordinates": [ 9.167799, 44.411912 ] } },
{ "type": "Feature", "properties": { "REGIONE": "LOMBARDIA", "PROVINCIA": "PV", "COMUNE": "VAL DI NIZZA", "SPECIE": "CINGHIALE(SELVATICI)", "DATA_SOSPETTO": null, "DATA_CONFERMA": null, "ESITO": "N", "DATA_PRELIEVO": "2022-03-21", "DATA": "2022-03-22" }, "geometry": { "type": "Point", "coordinates": [ 9.191708, 44.882244 ] } },
{ "type": "Feature", "properties": { "REGIONE": "LIGURIA", "PROVINCIA": "GE", "COMUNE": "ROSSIGLIONE", "SPECIE": "CINGHIALE(SELVATICI)", "DATA_SOSPETTO": "2022-03-21", "DATA_CONFERMA": "2022-03-24", "ESITO": "P", "DATA_PRELIEVO": null, "DATA": "2022-03-21" }, "geometry": { "type": "Point", "coordinates": [ 8.682638, 44.559527 ] } },
{ "type": "Feature", "properties": { "REGIONE": "LOMBARDIA", "PROVINCIA": "PV", "COMUNE": "STRADELLA", "SPECIE": "CINGHIALE(SELVATICI)", "DATA_SOSPETTO": null, "DATA_CONFERMA": null, "ESITO": "N", "DATA_PRELIEVO": "2022-03-20", "DATA": "2022-03-21" }, "geometry": { "type": "Point", "coordinates": [ 9.302257, 45.078975 ] } },
{ "type": "Feature", "properties": { "REGIONE": "PIEMONTE", "PROVINCIA": "AL", "COMUNE": "MASIO", "SPECIE": "SUINI(DOMESTICI)", "DATA_SOSPETTO": null, "DATA_CONFERMA": null, "ESITO": "N", "DATA_PRELIEVO": "2022-03-21", "DATA": "2022-03-21" }, "geometry": { "type": "Point", "coordinates": [ 8.451836, 44.864002 ] } },
{ "type": "Feature", "properties": { "REGIONE": "PIEMONTE", "PROVINCIA": "AL", "COMUNE": "ARQUATA SCRIVIA", "SPECIE": "CINGHIALE(SELVATICI)", "DATA_SOSPETTO": "2022-03-21", "DATA_CONFERMA": "2022-03-22", "ESITO": "P", "DATA_PRELIEVO": null, "DATA": "2022-03-21" }, "geometry": { "type": "Point", "coordinates": [ 8.858874, 44.656788 ] } },
{ "type": "Feature", "properties": { "REGIONE": "PIEMONTE", "PROVINCIA": "AL", "COMUNE": "MASIO", "SPECIE": "SUINI(DOMESTICI)", "DATA_SOSPETTO": null, "DATA_CONFERMA": null, "ESITO": "N", "DATA_PRELIEVO": "2022-03-21", "DATA": "2022-03-21" }, "geometry": { "type": "Point", "coordinates": [ 8.451836, 44.864002 ] } },
{ "type": "Feature", "properties": { "REGIONE": "PIEMONTE", "PROVINCIA": "AL", "COMUNE": "MASIO", "SPECIE": "SUINI(DOMESTICI)", "DATA_SOSPETTO": null, "DATA_CONFERMA": null, "ESITO": "N", "DATA_PRELIEVO": "2022-03-21", "DATA": "2022-03-21" }, "geometry": { "type": "Point", "coordinates": [ 8.451836, 44.864002 ] } },
{ "type": "Feature", "properties": { "REGIONE": "PIEMONTE", "PROVINCIA": "AL", "COMUNE": "MASIO", "SPECIE": "CINGHIALE(SELVATICI)", "DATA_SOSPETTO": null, "DATA_CONFERMA": null, "ESITO": "N", "DATA_PRELIEVO": "2022-03-21", "DATA": "2022-03-21" }, "geometry": { "type": "Point", "coordinates": [ 8.399215, 44.849023 ] } },
{ "type": "Feature", "properties": { "REGIONE": "LIGURIA", "PROVINCIA": "GE", "COMUNE": "CAMPO LIGURE", "SPECIE": "CINGHIALE(SELVATICI)", "DATA_SOSPETTO": "2022-03-21", "DATA_CONFERMA": "2022-03-24", "ESITO": "P", "DATA_PRELIEVO": null, "DATA": "2022-03-21" }, "geometry": { "type": "Point", "coordinates": [ 8.686714, 44.544597 ] } },
{ "type": "Feature", "properties": { "REGIONE": "PIEMONTE", "PROVINCIA": "AL", "COMUNE": "BOSIO", "SPECIE": "CINGHIALE(SELVATICI)", "DATA_SOSPETTO": "2022-03-21", "DATA_CONFERMA": "2022-03-22", "ESITO": "P", "DATA_PRELIEVO": null, "DATA": "2022-03-21" }, "geometry": { "type": "Point", "coordinates": [ 8.778724, 44.569035 ] } },
{ "type": "Feature", "properties": { "REGIONE": "PIEMONTE", "PROVINCIA": "AL", "COMUNE": "MASIO", "SPECIE": "SUINI(DOMESTICI)", "DATA_SOSPETTO": null, "DATA_CONFERMA": null, "ESITO": "N", "DATA_PRELIEVO": "2022-03-21", "DATA": "2022-03-21" }, "geometry": { "type": "Point", "coordinates": [ 8.451836, 44.864002 ] } },
{ "type": "Feature", "properties": { "REGIONE": "LIGURIA", "PROVINCIA": "GE", "COMUNE": "RECCO", "SPECIE": "CINGHIALE(SELVATICI)", "DATA_SOSPETTO": null, "DATA_CONFERMA": null, "ESITO": "N", "DATA_PRELIEVO": "2022-03-20", "DATA": "2022-03-21" }, "geometry": { "type": "Point", "coordinates": [ 9.155541, 44.361968 ] } },
{ "type": "Feature", "properties": { "REGIONE": "PIEMONTE", "PROVINCIA": "AL", "COMUNE": "MASIO", "SPECIE": "SUINI(DOMESTICI)", "DATA_SOSPETTO": null, "DATA_CONFERMA": null, "ESITO": "N", "DATA_PRELIEVO": "2022-03-21", "DATA": "2022-03-21" }, "geometry": { "type": "Point", "coordinates": [ 8.451836, 44.864002 ] } },
{ "type": "Feature", "properties": { "REGIONE": "PIEMONTE", "PROVINCIA": "CN", "COMUNE": "LISIO", "SPECIE": "CINGHIALE(SELVATICI)", "DATA_SOSPETTO": null, "DATA_CONFERMA": null, "ESITO": "N", "DATA_PRELIEVO": "2022-03-21", "DATA": "2022-03-21" }, "geometry": { "type": "Point", "coordinates": [ 7.980147, 44.311593 ] } },
{ "type": "Feature", "properties": { "REGIONE": "PIEMONTE", "PROVINCIA": "AL", "COMUNE": "MASIO", "SPECIE": "SUINI(DOMESTICI)", "DATA_SOSPETTO": null, "DATA_CONFERMA": null, "ESITO": "N", "DATA_PRELIEVO": "2022-03-21", "DATA": "2022-03-21" }, "geometry": { "type": "Point", "coordinates": [ 8.451836, 44.864002 ] } },
{ "type": "Feature", "properties": { "REGIONE": "PIEMONTE", "PROVINCIA": "AL", "COMUNE": "MASIO", "SPECIE": "SUINI(DOMESTICI)", "DATA_SOSPETTO": null, "DATA_CONFERMA": null, "ESITO": "N", "DATA_PRELIEVO": "2022-03-21", "DATA": "2022-03-21" }, "geometry": { "type": "Point", "coordinates": [ 8.451836, 44.864002 ] } },
{ "type": "Feature", "properties": { "REGIONE": "PIEMONTE", "PROVINCIA": "AL", "COMUNE": "MASIO", "SPECIE": "SUINI(DOMESTICI)", "DATA_SOSPETTO": null, "DATA_CONFERMA": null, "ESITO": "N", "DATA_PRELIEVO": "2022-03-21", "DATA": "2022-03-21" }, "geometry": { "type": "Point", "coordinates": [ 8.451836, 44.864002 ] } },
{ "type": "Feature", "properties": { "REGIONE": "PIEMONTE", "PROVINCIA": "AL", "COMUNE": "MASIO", "SPECIE": "SUINI(DOMESTICI)", "DATA_SOSPETTO": null, "DATA_CONFERMA": null, "ESITO": "N", "DATA_PRELIEVO": "2022-03-21", "DATA": "2022-03-21" }, "geometry": { "type": "Point", "coordinates": [ 8.451836, 44.864002 ] } },
{ "type": "Feature", "properties": { "REGIONE": "LIGURIA", "PROVINCIA": "GE", "COMUNE": "GENOVA", "SPECIE": "CINGHIALE(SELVATICI)", "DATA_SOSPETTO": null, "DATA_CONFERMA": null, "ESITO": "N", "DATA_PRELIEVO": "2022-03-21", "DATA": "2022-03-21" }, "geometry": { "type": "Point", "coordinates": [ 8.967218, 44.397186 ] } },
{ "type": "Feature", "properties": { "REGIONE": "PIEMONTE", "PROVINCIA": "AL", "COMUNE": "MASIO", "SPECIE": "SUINI(DOMESTICI)", "DATA_SOSPETTO": null, "DATA_CONFERMA": null, "ESITO": "N", "DATA_PRELIEVO": "2022-03-21", "DATA": "2022-03-21" }, "geometry": { "type": "Point", "coordinates": [ 8.451836, 44.864002 ] } },
{ "type": "Feature", "properties": { "REGIONE": "PIEMONTE", "PROVINCIA": "CN", "COMUNE": "MONDOVI'", "SPECIE": "CINGHIALE(SELVATICI)", "DATA_SOSPETTO": null, "DATA_CONFERMA": null, "ESITO": "N", "DATA_PRELIEVO": "2022-03-20", "DATA": "2022-03-20" }, "geometry": { "type": "Point", "coordinates": [ 7.819671, 44.395343 ] } },
{ "type": "Feature", "properties": { "REGIONE": "LIGURIA", "PROVINCIA": "GE", "COMUNE": "SORI", "SPECIE": "CINGHIALE(SELVATICI)", "DATA_SOSPETTO": null, "DATA_CONFERMA": null, "ESITO": "N", "DATA_PRELIEVO": "2022-03-19", "DATA": "2022-03-20" }, "geometry": { "type": "Point", "coordinates": [ 9.115705, 44.387169 ] } },
{ "type": "Feature", "properties": { "REGIONE": "LIGURIA", "PROVINCIA": "GE", "COMUNE": "GENOVA", "SPECIE": "CINGHIALE(SELVATICI)", "DATA_SOSPETTO": null, "DATA_CONFERMA": null, "ESITO": "N", "DATA_PRELIEVO": "2022-03-19", "DATA": "2022-03-20" }, "geometry": { "type": "Point", "coordinates": [ 8.984677, 44.40581 ] } },
{ "type": "Feature", "properties": { "REGIONE": "LOMBARDIA", "PROVINCIA": "PV", "COMUNE": "LANDRIANO", "SPECIE": "SUINI(DOMESTICI)", "DATA_SOSPETTO": null, "DATA_CONFERMA": null, "ESITO": "N", "DATA_PRELIEVO": "2022-03-19", "DATA": "2022-03-20" }, "geometry": { "type": "Point", "coordinates": [ 9.254659, 45.31414 ] } },
{ "type": "Feature", "properties": { "REGIONE": "LOMBARDIA", "PROVINCIA": "PV", "COMUNE": "MONTESEGALE", "SPECIE": "CINGHIALE(SELVATICI)", "DATA_SOSPETTO": null, "DATA_CONFERMA": null, "ESITO": "N", "DATA_PRELIEVO": "2022-03-19", "DATA": "2022-03-20" }, "geometry": { "type": "Point", "coordinates": [ 9.12715, 44.90612 ] } },
{ "type": "Feature", "properties": { "REGIONE": "LIGURIA", "PROVINCIA": "GE", "COMUNE": "GENOVA", "SPECIE": "CINGHIALE(SELVATICI)", "DATA_SOSPETTO": null, "DATA_CONFERMA": null, "ESITO": "N", "DATA_PRELIEVO": "2022-03-19", "DATA": "2022-03-19" }, "geometry": { "type": "Point", "coordinates": [ 8.974721, 44.402507 ] } },
{ "type": "Feature", "properties": { "REGIONE": "PIEMONTE", "PROVINCIA": "CN", "COMUNE": "CRAVANZANA", "SPECIE": "CINGHIALE(SELVATICI)", "DATA_SOSPETTO": null, "DATA_CONFERMA": null, "ESITO": "N", "DATA_PRELIEVO": "2022-03-19", "DATA": "2022-03-19" }, "geometry": { "type": "Point", "coordinates": [ 8.132256, 44.582775 ] } },
{ "type": "Feature", "properties": { "REGIONE": "PIEMONTE", "PROVINCIA": "CN", "COMUNE": "SANTO STEFANO BELBO", "SPECIE": "CINGHIALE(SELVATICI)", "DATA_SOSPETTO": null, "DATA_CONFERMA": null, "ESITO": "N", "DATA_PRELIEVO": "2022-03-19", "DATA": "2022-03-19" }, "geometry": { "type": "Point", "coordinates": [ 8.217249, 44.699675 ] } },
{ "type": "Feature", "properties": { "REGIONE": "PIEMONTE", "PROVINCIA": "AT", "COMUNE": "MONTEGROSSO D'ASTI", "SPECIE": "CINGHIALE(SELVATICI)", "DATA_SOSPETTO": null, "DATA_CONFERMA": null, "ESITO": "N", "DATA_PRELIEVO": "2022-03-19", "DATA": "2022-03-19" }, "geometry": { "type": "Point", "coordinates": [ 8.206303, 44.808104 ] } },
{ "type": "Feature", "properties": { "REGIONE": "LIGURIA", "PROVINCIA": "GE", "COMUNE": "GENOVA", "SPECIE": "CINGHIALE(SELVATICI)", "DATA_SOSPETTO": null, "DATA_CONFERMA": null, "ESITO": "N", "DATA_PRELIEVO": "2022-03-19", "DATA": "2022-03-19" }, "geometry": { "type": "Point", "coordinates": [ 8.974528, 44.402538 ] } },
{ "type": "Feature", "properties": { "REGIONE": "PIEMONTE", "PROVINCIA": "AL", "COMUNE": "PREDOSA", "SPECIE": "CINGHIALE(SELVATICI)", "DATA_SOSPETTO": null, "DATA_CONFERMA": null, "ESITO": "N", "DATA_PRELIEVO": "2022-03-19", "DATA": "2022-03-19" }, "geometry": { "type": "Point", "coordinates": [ 8.643825, 44.790149 ] } },
{ "type": "Feature", "properties": { "REGIONE": "LIGURIA", "PROVINCIA": "GE", "COMUNE": "GENOVA", "SPECIE": "CINGHIALE(SELVATICI)", "DATA_SOSPETTO": null, "DATA_CONFERMA": null, "ESITO": "N", "DATA_PRELIEVO": "2022-03-19", "DATA": "2022-03-19" }, "geometry": { "type": "Point", "coordinates": [ 8.974721, 44.402571 ] } },
{ "type": "Feature", "properties": { "REGIONE": "PIEMONTE", "PROVINCIA": "AT", "COMUNE": "MONTEGROSSO D'ASTI", "SPECIE": "CINGHIALE(SELVATICI)", "DATA_SOSPETTO": null, "DATA_CONFERMA": null, "ESITO": "N", "DATA_PRELIEVO": "2022-03-19", "DATA": "2022-03-19" }, "geometry": { "type": "Point", "coordinates": [ 8.21641, 44.804193 ] } },
{ "type": "Feature", "properties": { "REGIONE": "PIEMONTE", "PROVINCIA": "AL", "COMUNE": "VIGNOLE BORBERA", "SPECIE": "CINGHIALE(SELVATICI)", "DATA_SOSPETTO": null, "DATA_CONFERMA": null, "ESITO": "N", "DATA_PRELIEVO": "2022-03-18", "DATA": "2022-03-19" }, "geometry": { "type": "Point", "coordinates": [ 8.893051, 44.6996 ] } },
{ "type": "Feature", "properties": { "REGIONE": "PIEMONTE", "PROVINCIA": "AT", "COMUNE": "CASTELNUOVO DON BOSCO", "SPECIE": "CINGHIALE(SELVATICI)", "DATA_SOSPETTO": null, "DATA_CONFERMA": null, "ESITO": "N", "DATA_PRELIEVO": "2022-03-19", "DATA": "2022-03-19" }, "geometry": { "type": "Point", "coordinates": [ 7.946675, 45.066651 ] } },
{ "type": "Feature", "properties": { "REGIONE": "LOMBARDIA", "PROVINCIA": "PV", "COMUNE": "PIEVE DEL CAIRO", "SPECIE": "CINGHIALE(SELVATICI)", "DATA_SOSPETTO": null, "DATA_CONFERMA": null, "ESITO": "N", "DATA_PRELIEVO": "2022-03-18", "DATA": "2022-03-19" }, "geometry": { "type": "Point", "coordinates": [ 8.814228, 45.062427 ] } },
{ "type": "Feature", "properties": { "REGIONE": "LOMBARDIA", "PROVINCIA": "PV", "COMUNE": "PIEVE DEL CAIRO", "SPECIE": "CINGHIALE(SELVATICI)", "DATA_SOSPETTO": null, "DATA_CONFERMA": null, "ESITO": "N", "DATA_PRELIEVO": "2022-03-18", "DATA": "2022-03-19" }, "geometry": { "type": "Point", "coordinates": [ 8.814228, 45.062427 ] } },
{ "type": "Feature", "properties": { "REGIONE": "PIEMONTE", "PROVINCIA": "CN", "COMUNE": "REVELLO", "SPECIE": "CINGHIALE(SELVATICI)", "DATA_SOSPETTO": null, "DATA_CONFERMA": null, "ESITO": "N", "DATA_PRELIEVO": "2022-03-18", "DATA": "2022-03-18" }, "geometry": { "type": "Point", "coordinates": [ 7.439613, 44.732572 ] } },
{ "type": "Feature", "properties": { "REGIONE": "LIGURIA", "PROVINCIA": "SV", "COMUNE": "COSSERIA", "SPECIE": "CINGHIALE(SELVATICI)", "DATA_SOSPETTO": null, "DATA_CONFERMA": null, "ESITO": "N", "DATA_PRELIEVO": "2022-03-17", "DATA": "2022-03-18" }, "geometry": { "type": "Point", "coordinates": [ 8.268146, 44.362588 ] } },
{ "type": "Feature", "properties": { "REGIONE": "LOMBARDIA", "PROVINCIA": "PV", "COMUNE": "BRONI", "SPECIE": "CINGHIALE(SELVATICI)", "DATA_SOSPETTO": null, "DATA_CONFERMA": null, "ESITO": "N", "DATA_PRELIEVO": "2022-03-17", "DATA": "2022-03-18" }, "geometry": { "type": "Point", "coordinates": [ 9.256917, 45.064264 ] } },
{ "type": "Feature", "properties": { "REGIONE": "LIGURIA", "PROVINCIA": "GE", "COMUNE": "RECCO", "SPECIE": "CINGHIALE(SELVATICI)", "DATA_SOSPETTO": null, "DATA_CONFERMA": null, "ESITO": "N", "DATA_PRELIEVO": "2022-03-18", "DATA": "2022-03-18" }, "geometry": { "type": "Point", "coordinates": [ 9.150312, 44.374517 ] } },
{ "type": "Feature", "properties": { "REGIONE": "LIGURIA", "PROVINCIA": "GE", "COMUNE": "MELE", "SPECIE": "CINGHIALE(SELVATICI)", "DATA_SOSPETTO": null, "DATA_CONFERMA": null, "ESITO": "N", "DATA_PRELIEVO": "2022-03-18", "DATA": "2022-03-18" }, "geometry": { "type": "Point", "coordinates": [ 8.752955, 44.460574 ] } },
{ "type": "Feature", "properties": { "REGIONE": "EMILIA-ROMAGNA", "PROVINCIA": "PC", "COMUNE": "CASTELL'ARQUATO", "SPECIE": "CINGHIALE(SELVATICI)", "DATA_SOSPETTO": null, "DATA_CONFERMA": null, "ESITO": "N", "DATA_PRELIEVO": "2022-03-18", "DATA": "2022-03-18" }, "geometry": { "type": "Point", "coordinates": [ 9.910202, 44.872722 ] } },
{ "type": "Feature", "properties": { "REGIONE": "PIEMONTE", "PROVINCIA": "AT", "COMUNE": "ASTI", "SPECIE": "CINGHIALE(SELVATICI)", "DATA_SOSPETTO": null, "DATA_CONFERMA": null, "ESITO": "N", "DATA_PRELIEVO": "2022-03-18", "DATA": "2022-03-18" }, "geometry": { "type": "Point", "coordinates": [ 8.302233, 44.912772 ] } },
{ "type": "Feature", "properties": { "REGIONE": "EMILIA-ROMAGNA", "PROVINCIA": "PC", "COMUNE": "TRAVO", "SPECIE": "CINGHIALE(SELVATICI)", "DATA_SOSPETTO": null, "DATA_CONFERMA": null, "ESITO": "N", "DATA_PRELIEVO": "2022-03-18", "DATA": "2022-03-18" }, "geometry": { "type": "Point", "coordinates": [ 9.548333, 44.8575 ] } },
{ "type": "Feature", "properties": { "REGIONE": "PIEMONTE", "PROVINCIA": "AL", "COMUNE": "OCCIMIANO", "SPECIE": "CINGHIALE(SELVATICI)", "DATA_SOSPETTO": null, "DATA_CONFERMA": null, "ESITO": "N", "DATA_PRELIEVO": "2022-03-17", "DATA": "2022-03-17" }, "geometry": { "type": "Point", "coordinates": [ 8.47375, 45.08293 ] } },
{ "type": "Feature", "properties": { "REGIONE": "LOMBARDIA", "PROVINCIA": "PV", "COMUNE": "VARZI", "SPECIE": "CINGHIALE(SELVATICI)", "DATA_SOSPETTO": null, "DATA_CONFERMA": null, "ESITO": "N", "DATA_PRELIEVO": "2022-03-16", "DATA": "2022-03-17" }, "geometry": { "type": "Point", "coordinates": [ 9.174894, 44.778423 ] } },
{ "type": "Feature", "properties": { "REGIONE": "PIEMONTE", "PROVINCIA": "AL", "COMUNE": "CASSINE", "SPECIE": "CINGHIALE(SELVATICI)", "DATA_SOSPETTO": null, "DATA_CONFERMA": null, "ESITO": "N", "DATA_PRELIEVO": "2022-03-17", "DATA": "2022-03-17" }, "geometry": { "type": "Point", "coordinates": [ 8.521865, 44.743867 ] } },
{ "type": "Feature", "properties": { "REGIONE": "PIEMONTE", "PROVINCIA": "AT", "COMUNE": "BELVEGLIO", "SPECIE": "CINGHIALE(SELVATICI)", "DATA_SOSPETTO": null, "DATA_CONFERMA": null, "ESITO": "N", "DATA_PRELIEVO": "2022-03-17", "DATA": "2022-03-17" }, "geometry": { "type": "Point", "coordinates": [ 8.333566, 44.82822 ] } },
{ "type": "Feature", "properties": { "REGIONE": "PIEMONTE", "PROVINCIA": "CN", "COMUNE": "MONTEROSSO GRANA", "SPECIE": "CINGHIALE(SELVATICI)", "DATA_SOSPETTO": null, "DATA_CONFERMA": null, "ESITO": "N", "DATA_PRELIEVO": "2022-03-17", "DATA": "2022-03-17" }, "geometry": { "type": "Point", "coordinates": [ 7.320002, 44.4092 ] } },
{ "type": "Feature", "properties": { "REGIONE": "LIGURIA", "PROVINCIA": "GE", "COMUNE": "RONCO SCRIVIA", "SPECIE": "CINGHIALE(SELVATICI)", "DATA_SOSPETTO": "2022-03-17", "DATA_CONFERMA": "2022-03-22", "ESITO": "P", "DATA_PRELIEVO": null, "DATA": "2022-03-17" }, "geometry": { "type": "Point", "coordinates": [ 8.950113, 44.59541 ] } },
{ "type": "Feature", "properties": { "REGIONE": "PIEMONTE", "PROVINCIA": "AL", "COMUNE": "MASIO", "SPECIE": "SUINI(DOMESTICI)", "DATA_SOSPETTO": null, "DATA_CONFERMA": null, "ESITO": "N", "DATA_PRELIEVO": "2022-03-16", "DATA": "2022-03-16" }, "geometry": { "type": "Point", "coordinates": [ 8.451836, 44.864002 ] } },
{ "type": "Feature", "properties": { "REGIONE": "PIEMONTE", "PROVINCIA": "AL", "COMUNE": "MASIO", "SPECIE": "SUINI(DOMESTICI)", "DATA_SOSPETTO": null, "DATA_CONFERMA": null, "ESITO": "N", "DATA_PRELIEVO": "2022-03-16", "DATA": "2022-03-16" }, "geometry": { "type": "Point", "coordinates": [ 8.451836, 44.864002 ] } },
{ "type": "Feature", "properties": { "REGIONE": "PIEMONTE", "PROVINCIA": "AL", "COMUNE": "MASIO", "SPECIE": "SUINI(DOMESTICI)", "DATA_SOSPETTO": null, "DATA_CONFERMA": null, "ESITO": "N", "DATA_PRELIEVO": "2022-03-15", "DATA": "2022-03-16" }, "geometry": { "type": "Point", "coordinates": [ 8.451836, 44.864002 ] } },
{ "type": "Feature", "properties": { "REGIONE": "PIEMONTE", "PROVINCIA": "AL", "COMUNE": "GAVI", "SPECIE": "CINGHIALE(SELVATICI)", "DATA_SOSPETTO": "2022-03-16", "DATA_CONFERMA": "2022-03-18", "ESITO": "P", "DATA_PRELIEVO": null, "DATA": "2022-03-16" }, "geometry": { "type": "Point", "coordinates": [ 8.856125, 44.691425 ] } },
{ "type": "Feature", "properties": { "REGIONE": "PIEMONTE", "PROVINCIA": "AL", "COMUNE": "TAGLIOLO MONFERRATO", "SPECIE": "CINGHIALE(SELVATICI)", "DATA_SOSPETTO": null, "DATA_CONFERMA": null, "ESITO": "N", "DATA_PRELIEVO": "2022-03-16", "DATA": "2022-03-16" }, "geometry": { "type": "Point", "coordinates": [ 8.717035, 44.591826 ] } },
{ "type": "Feature", "properties": { "REGIONE": "PIEMONTE", "PROVINCIA": "CN", "COMUNE": "CLAVESANA", "SPECIE": "CINGHIALE(SELVATICI)", "DATA_SOSPETTO": null, "DATA_CONFERMA": null, "ESITO": "N", "DATA_PRELIEVO": "2022-03-16", "DATA": "2022-03-16" }, "geometry": { "type": "Point", "coordinates": [ 7.909313, 44.490665 ] } },
{ "type": "Feature", "properties": { "REGIONE": "LIGURIA", "PROVINCIA": "GE", "COMUNE": "GENOVA", "SPECIE": "CINGHIALE(SELVATICI)", "DATA_SOSPETTO": null, "DATA_CONFERMA": null, "ESITO": "N", "DATA_PRELIEVO": "2022-03-15", "DATA": "2022-03-16" }, "geometry": { "type": "Point", "coordinates": [ 8.94739, 44.4194 ] } },
{ "type": "Feature", "properties": { "REGIONE": "LIGURIA", "PROVINCIA": "GE", "COMUNE": "GENOVA", "SPECIE": "CINGHIALE(SELVATICI)", "DATA_SOSPETTO": null, "DATA_CONFERMA": null, "ESITO": "N", "DATA_PRELIEVO": "2022-03-15", "DATA": "2022-03-16" }, "geometry": { "type": "Point", "coordinates": [ 8.974997, 44.401584 ] } },
{ "type": "Feature", "properties": { "REGIONE": "PIEMONTE", "PROVINCIA": "AL", "COMUNE": "MASIO", "SPECIE": "SUINI(DOMESTICI)", "DATA_SOSPETTO": null, "DATA_CONFERMA": null, "ESITO": "N", "DATA_PRELIEVO": "2022-03-16", "DATA": "2022-03-16" }, "geometry": { "type": "Point", "coordinates": [ 8.451836, 44.864002 ] } },
{ "type": "Feature", "properties": { "REGIONE": "LIGURIA", "PROVINCIA": "GE", "COMUNE": "GENOVA", "SPECIE": "CINGHIALE(SELVATICI)", "DATA_SOSPETTO": null, "DATA_CONFERMA": null, "ESITO": "N", "DATA_PRELIEVO": "2022-03-15", "DATA": "2022-03-16" }, "geometry": { "type": "Point", "coordinates": [ 8.974997, 44.401584 ] } },
{ "type": "Feature", "properties": { "REGIONE": "PIEMONTE", "PROVINCIA": "AL", "COMUNE": "OVADA", "SPECIE": "CINGHIALE(SELVATICI)", "DATA_SOSPETTO": null, "DATA_CONFERMA": null, "ESITO": "N", "DATA_PRELIEVO": "2022-03-16", "DATA": "2022-03-16" }, "geometry": { "type": "Point", "coordinates": [ 8.65438, 44.65031 ] } },
{ "type": "Feature", "properties": { "REGIONE": "PIEMONTE", "PROVINCIA": "CN", "COMUNE": "POCAPAGLIA", "SPECIE": "CINGHIALE(SELVATICI)", "DATA_SOSPETTO": null, "DATA_CONFERMA": null, "ESITO": "N", "DATA_PRELIEVO": "2022-03-15", "DATA": "2022-03-15" }, "geometry": { "type": "Point", "coordinates": [ 7.865108, 44.732907 ] } },
{ "type": "Feature", "properties": { "REGIONE": "LIGURIA", "PROVINCIA": "GE", "COMUNE": "GENOVA", "SPECIE": "CINGHIALE(SELVATICI)", "DATA_SOSPETTO": null, "DATA_CONFERMA": null, "ESITO": "N", "DATA_PRELIEVO": "2022-03-14", "DATA": "2022-03-15" }, "geometry": { "type": "Point", "coordinates": [ 8.951, 44.431613 ] } },
{ "type": "Feature", "properties": { "REGIONE": "LIGURIA", "PROVINCIA": "GE", "COMUNE": "GENOVA", "SPECIE": "CINGHIALE(SELVATICI)", "DATA_SOSPETTO": null, "DATA_CONFERMA": null, "ESITO": "N", "DATA_PRELIEVO": "2022-03-14", "DATA": "2022-03-15" }, "geometry": { "type": "Point", "coordinates": [ 8.951, 44.431613 ] } },
{ "type": "Feature", "properties": { "REGIONE": "LOMBARDIA", "PROVINCIA": "PV", "COMUNE": "TRAVACO' SICCOMARIO", "SPECIE": "CINGHIALE(SELVATICI)", "DATA_SOSPETTO": null, "DATA_CONFERMA": null, "ESITO": "N", "DATA_PRELIEVO": "2022-03-14", "DATA": "2022-03-15" }, "geometry": { "type": "Point", "coordinates": [ 9.162157, 45.151994 ] } },
{ "type": "Feature", "properties": { "REGIONE": "LIGURIA", "PROVINCIA": "SV", "COMUNE": "MALLARE", "SPECIE": "CINGHIALE(SELVATICI)", "DATA_SOSPETTO": null, "DATA_CONFERMA": null, "ESITO": "N", "DATA_PRELIEVO": "2022-03-14", "DATA": "2022-03-15" }, "geometry": { "type": "Point", "coordinates": [ 8.294285, 44.291544 ] } },
{ "type": "Feature", "properties": { "REGIONE": "LIGURIA", "PROVINCIA": "GE", "COMUNE": "GENOVA", "SPECIE": "CINGHIALE(SELVATICI)", "DATA_SOSPETTO": null, "DATA_CONFERMA": null, "ESITO": "N", "DATA_PRELIEVO": "2022-03-14", "DATA": "2022-03-15" }, "geometry": { "type": "Point", "coordinates": [ 8.9131, 44.4482 ] } },
{ "type": "Feature", "properties": { "REGIONE": "PIEMONTE", "PROVINCIA": "AT", "COMUNE": "MONTIGLIO MONFERRATO", "SPECIE": "SUINI(DOMESTICI)", "DATA_SOSPETTO": null, "DATA_CONFERMA": null, "ESITO": "N", "DATA_PRELIEVO": "2022-03-15", "DATA": "2022-03-15" }, "geometry": { "type": "Point", "coordinates": [ 8.136629, 45.027222 ] } },
{ "type": "Feature", "properties": { "REGIONE": "LIGURIA", "PROVINCIA": "GE", "COMUNE": "GENOVA", "SPECIE": "CINGHIALE(SELVATICI)", "DATA_SOSPETTO": null, "DATA_CONFERMA": null, "ESITO": "N", "DATA_PRELIEVO": "2022-03-14", "DATA": "2022-03-15" }, "geometry": { "type": "Point", "coordinates": [ 8.951, 44.431613 ] } },
{ "type": "Feature", "properties": { "REGIONE": "PIEMONTE", "PROVINCIA": "AL", "COMUNE": "PREDOSA", "SPECIE": "SUINI(DOMESTICI)", "DATA_SOSPETTO": null, "DATA_CONFERMA": null, "ESITO": "N", "DATA_PRELIEVO": "2022-03-14", "DATA": "2022-03-14" }, "geometry": { "type": "Point", "coordinates": [ 8.628602, 44.722191 ] } },
{ "type": "Feature", "properties": { "REGIONE": "PIEMONTE", "PROVINCIA": "AT", "COMUNE": "COSTIGLIOLE D'ASTI", "SPECIE": "SUINI(DOMESTICI)", "DATA_SOSPETTO": null, "DATA_CONFERMA": null, "ESITO": "N", "DATA_PRELIEVO": "2022-03-14", "DATA": "2022-03-14" }, "geometry": { "type": "Point", "coordinates": [ 8.160367, 44.795159 ] } },
{ "type": "Feature", "properties": { "REGIONE": "PIEMONTE", "PROVINCIA": "CN", "COMUNE": "CASTIGLIONE FALLETTO", "SPECIE": "CINGHIALE(SELVATICI)", "DATA_SOSPETTO": null, "DATA_CONFERMA": null, "ESITO": "N", "DATA_PRELIEVO": "2022-03-13", "DATA": "2022-03-14" }, "geometry": { "type": "Point", "coordinates": [ 7.96853, 44.635305 ] } },
{ "type": "Feature", "properties": { "REGIONE": "PIEMONTE", "PROVINCIA": "AT", "COMUNE": "ASTI", "SPECIE": "CINGHIALE(SELVATICI)", "DATA_SOSPETTO": null, "DATA_CONFERMA": null, "ESITO": "N", "DATA_PRELIEVO": "2022-03-14", "DATA": "2022-03-14" }, "geometry": { "type": "Point", "coordinates": [ 8.155526, 44.900209 ] } },
{ "type": "Feature", "properties": { "REGIONE": "LIGURIA", "PROVINCIA": "GE", "COMUNE": "GENOVA", "SPECIE": "CINGHIALE(SELVATICI)", "DATA_SOSPETTO": null, "DATA_CONFERMA": null, "ESITO": "N", "DATA_PRELIEVO": "2022-03-13", "DATA": "2022-03-14" }, "geometry": { "type": "Point", "coordinates": [ 8.9627, 44.3999 ] } },
{ "type": "Feature", "properties": { "REGIONE": "EMILIA-ROMAGNA", "PROVINCIA": "PC", "COMUNE": "VILLANOVA SULL'ARDA", "SPECIE": "SUINI(DOMESTICI)", "DATA_SOSPETTO": null, "DATA_CONFERMA": null, "ESITO": "N", "DATA_PRELIEVO": "2022-03-14", "DATA": "2022-03-14" }, "geometry": { "type": "Point", "coordinates": [ 10.00853, 45.00593 ] } },
{ "type": "Feature", "properties": { "REGIONE": "PIEMONTE", "PROVINCIA": "CN", "COMUNE": "CASTIGLIONE FALLETTO", "SPECIE": "CINGHIALE(SELVATICI)", "DATA_SOSPETTO": null, "DATA_CONFERMA": null, "ESITO": "N", "DATA_PRELIEVO": "2022-03-14", "DATA": "2022-03-14" }, "geometry": { "type": "Point", "coordinates": [ 7.968751, 44.63571 ] } },
{ "type": "Feature", "properties": { "REGIONE": "PIEMONTE", "PROVINCIA": "AL", "COMUNE": "TAGLIOLO MONFERRATO", "SPECIE": "CINGHIALE(SELVATICI)", "DATA_SOSPETTO": "2022-03-13", "DATA_CONFERMA": "2022-03-14", "ESITO": "P", "DATA_PRELIEVO": null, "DATA": "2022-03-13" }, "geometry": { "type": "Point", "coordinates": [ 8.704022, 44.613252 ] } },
{ "type": "Feature", "properties": { "REGIONE": "PIEMONTE", "PROVINCIA": "AL", "COMUNE": "PREDOSA", "SPECIE": "CINGHIALE(SELVATICI)", "DATA_SOSPETTO": null, "DATA_CONFERMA": null, "ESITO": "N", "DATA_PRELIEVO": "2022-03-13", "DATA": "2022-03-13" }, "geometry": { "type": "Point", "coordinates": [ 8.669059, 44.757886 ] } },
{ "type": "Feature", "properties": { "REGIONE": "LIGURIA", "PROVINCIA": "SV", "COMUNE": "URBE", "SPECIE": "CINGHIALE(SELVATICI)", "DATA_SOSPETTO": null, "DATA_CONFERMA": null, "ESITO": "N", "DATA_PRELIEVO": "2022-03-12", "DATA": "2022-03-13" }, "geometry": { "type": "Point", "coordinates": [ 8.607944, 44.499362 ] } },
{ "type": "Feature", "properties": { "REGIONE": "PIEMONTE", "PROVINCIA": "AL", "COMUNE": "OVADA", "SPECIE": "CINGHIALE(SELVATICI)", "DATA_SOSPETTO": "2022-03-13", "DATA_CONFERMA": "2022-03-14", "ESITO": "P", "DATA_PRELIEVO": null, "DATA": "2022-03-13" }, "geometry": { "type": "Point", "coordinates": [ 8.643134, 44.607378 ] } },
{ "type": "Feature", "properties": { "REGIONE": "PIEMONTE", "PROVINCIA": "AL", "COMUNE": "PREDOSA", "SPECIE": "CINGHIALE(SELVATICI)", "DATA_SOSPETTO": null, "DATA_CONFERMA": null, "ESITO": "N", "DATA_PRELIEVO": "2022-03-13", "DATA": "2022-03-13" }, "geometry": { "type": "Point", "coordinates": [ 8.668845, 44.75816 ] } },
{ "type": "Feature", "properties": { "REGIONE": "PIEMONTE", "PROVINCIA": "AT", "COMUNE": "ASTI", "SPECIE": "CINGHIALE(SELVATICI)", "DATA_SOSPETTO": null, "DATA_CONFERMA": null, "ESITO": "N", "DATA_PRELIEVO": "2022-03-13", "DATA": "2022-03-13" }, "geometry": { "type": "Point", "coordinates": [ 8.180731, 44.872662 ] } },
{ "type": "Feature", "properties": { "REGIONE": "PIEMONTE", "PROVINCIA": "CN", "COMUNE": "GARESSIO", "SPECIE": "CINGHIALE(SELVATICI)", "DATA_SOSPETTO": null, "DATA_CONFERMA": null, "ESITO": "N", "DATA_PRELIEVO": "2022-03-12", "DATA": "2022-03-12" }, "geometry": { "type": "Point", "coordinates": [ 7.984831, 44.189251 ] } },
{ "type": "Feature", "properties": { "REGIONE": "LOMBARDIA", "PROVINCIA": "PV", "COMUNE": "CASTELLETTO DI BRANDUZZO", "SPECIE": "CINGHIALE(SELVATICI)", "DATA_SOSPETTO": null, "DATA_CONFERMA": null, "ESITO": "N", "DATA_PRELIEVO": "2022-03-11", "DATA": "2022-03-12" }, "geometry": { "type": "Point", "coordinates": [ 9.088252, 45.059665 ] } },
{ "type": "Feature", "properties": { "REGIONE": "PIEMONTE", "PROVINCIA": "AL", "COMUNE": "ACQUI TERME", "SPECIE": "CINGHIALE(SELVATICI)", "DATA_SOSPETTO": null, "DATA_CONFERMA": null, "ESITO": "N", "DATA_PRELIEVO": "2022-03-12", "DATA": "2022-03-12" }, "geometry": { "type": "Point", "coordinates": [ 8.476996, 44.666626 ] } },
{ "type": "Feature", "properties": { "REGIONE": "PIEMONTE", "PROVINCIA": "AL", "COMUNE": "VOLTAGGIO", "SPECIE": "CINGHIALE(SELVATICI)", "DATA_SOSPETTO": "2022-03-12", "DATA_CONFERMA": "2022-03-14", "ESITO": "P", "DATA_PRELIEVO": null, "DATA": "2022-03-12" }, "geometry": { "type": "Point", "coordinates": [ 8.857901, 44.593339 ] } },
{ "type": "Feature", "properties": { "REGIONE": "PIEMONTE", "PROVINCIA": "AL", "COMUNE": "VOLTAGGIO", "SPECIE": "CINGHIALE(SELVATICI)", "DATA_SOSPETTO": "2022-03-12", "DATA_CONFERMA": "2022-03-14", "ESITO": "P", "DATA_PRELIEVO": null, "DATA": "2022-03-12" }, "geometry": { "type": "Point", "coordinates": [ 8.828461, 44.633253 ] } },
{ "type": "Feature", "properties": { "REGIONE": "LIGURIA", "PROVINCIA": "GE", "COMUNE": "BUSALLA", "SPECIE": "CINGHIALE(SELVATICI)", "DATA_SOSPETTO": "2022-03-12", "DATA_CONFERMA": "2022-03-17", "ESITO": "P", "DATA_PRELIEVO": null, "DATA": "2022-03-12" }, "geometry": { "type": "Point", "coordinates": [ 8.938263, 44.582361 ] } },
{ "type": "Feature", "properties": { "REGIONE": "PIEMONTE", "PROVINCIA": "AL", "COMUNE": "VOLTAGGIO", "SPECIE": "CINGHIALE(SELVATICI)", "DATA_SOSPETTO": "2022-03-12", "DATA_CONFERMA": "2022-03-14", "ESITO": "P", "DATA_PRELIEVO": null, "DATA": "2022-03-12" }, "geometry": { "type": "Point", "coordinates": [ 8.828815, 44.633169 ] } },
{ "type": "Feature", "properties": { "REGIONE": "EMILIA-ROMAGNA", "PROVINCIA": "PC", "COMUNE": "CASTELVETRO PIACENTINO", "SPECIE": "SUINI(DOMESTICI)", "DATA_SOSPETTO": null, "DATA_CONFERMA": null, "ESITO": "N", "DATA_PRELIEVO": "2022-03-11", "DATA": "2022-03-11" }, "geometry": { "type": "Point", "coordinates": [ 10.01661, 45.07547 ] } },
{ "type": "Feature", "properties": { "REGIONE": "PIEMONTE", "PROVINCIA": "AT", "COMUNE": "VAGLIO SERRA", "SPECIE": "CINGHIALE(SELVATICI)", "DATA_SOSPETTO": null, "DATA_CONFERMA": null, "ESITO": "N", "DATA_PRELIEVO": "2022-03-11", "DATA": "2022-03-11" }, "geometry": { "type": "Point", "coordinates": [ 8.332568, 44.808516 ] } },
{ "type": "Feature", "properties": { "REGIONE": "EMILIA-ROMAGNA", "PROVINCIA": "PC", "COMUNE": "CASTELVETRO PIACENTINO", "SPECIE": "SUINI(DOMESTICI)", "DATA_SOSPETTO": null, "DATA_CONFERMA": null, "ESITO": "N", "DATA_PRELIEVO": "2022-03-11", "DATA": "2022-03-11" }, "geometry": { "type": "Point", "coordinates": [ 10.01661, 45.07547 ] } },
{ "type": "Feature", "properties": { "REGIONE": "PIEMONTE", "PROVINCIA": "AL", "COMUNE": "MASIO", "SPECIE": "SUINI(DOMESTICI)", "DATA_SOSPETTO": null, "DATA_CONFERMA": null, "ESITO": "N", "DATA_PRELIEVO": "2022-03-09", "DATA": "2022-03-10" }, "geometry": { "type": "Point", "coordinates": [ 8.451836, 44.864002 ] } },
{ "type": "Feature", "properties": { "REGIONE": "PIEMONTE", "PROVINCIA": "AL", "COMUNE": "MASIO", "SPECIE": "SUINI(DOMESTICI)", "DATA_SOSPETTO": null, "DATA_CONFERMA": null, "ESITO": "N", "DATA_PRELIEVO": "2022-03-10", "DATA": "2022-03-10" }, "geometry": { "type": "Point", "coordinates": [ 8.451836, 44.864002 ] } },
{ "type": "Feature", "properties": { "REGIONE": "PIEMONTE", "PROVINCIA": "AL", "COMUNE": "MASIO", "SPECIE": "SUINI(DOMESTICI)", "DATA_SOSPETTO": null, "DATA_CONFERMA": null, "ESITO": "N", "DATA_PRELIEVO": "2022-03-10", "DATA": "2022-03-10" }, "geometry": { "type": "Point", "coordinates": [ 8.451836, 44.864002 ] } },
{ "type": "Feature", "properties": { "REGIONE": "PIEMONTE", "PROVINCIA": "CN", "COMUNE": "MONTELUPO ALBESE", "SPECIE": "CINGHIALE(SELVATICI)", "DATA_SOSPETTO": null, "DATA_CONFERMA": null, "ESITO": "N", "DATA_PRELIEVO": "2022-03-10", "DATA": "2022-03-10" }, "geometry": { "type": "Point", "coordinates": [ 8.016659, 44.623785 ] } },
{ "type": "Feature", "properties": { "REGIONE": "PIEMONTE", "PROVINCIA": "AL", "COMUNE": "POZZOLO FORMIGARO", "SPECIE": "CINGHIALE(SELVATICI)", "DATA_SOSPETTO": null, "DATA_CONFERMA": null, "ESITO": "N", "DATA_PRELIEVO": "2022-03-10", "DATA": "2022-03-10" }, "geometry": { "type": "Point", "coordinates": [ 8.780196, 44.811065 ] } },
{ "type": "Feature", "properties": { "REGIONE": "PIEMONTE", "PROVINCIA": "AL", "COMUNE": "ROCCA GRIMALDA", "SPECIE": "CINGHIALE(SELVATICI)", "DATA_SOSPETTO": null, "DATA_CONFERMA": null, "ESITO": "N", "DATA_PRELIEVO": "2022-03-10", "DATA": "2022-03-10" }, "geometry": { "type": "Point", "coordinates": [ 8.650662, 44.668718 ] } },
{ "type": "Feature", "properties": { "REGIONE": "PIEMONTE", "PROVINCIA": "AL", "COMUNE": "ALESSANDRIA", "SPECIE": "CINGHIALE(SELVATICI)", "DATA_SOSPETTO": null, "DATA_CONFERMA": null, "ESITO": "N", "DATA_PRELIEVO": "2022-03-10", "DATA": "2022-03-10" }, "geometry": { "type": "Point", "coordinates": [ 8.583098, 44.947623 ] } },
{ "type": "Feature", "properties": { "REGIONE": "PIEMONTE", "PROVINCIA": "CN", "COMUNE": "VICOFORTE", "SPECIE": "CINGHIALE(SELVATICI)", "DATA_SOSPETTO": null, "DATA_CONFERMA": null, "ESITO": "N", "DATA_PRELIEVO": "2022-03-10", "DATA": "2022-03-10" }, "geometry": { "type": "Point", "coordinates": [ 7.839785, 44.356553 ] } },
{ "type": "Feature", "properties": { "REGIONE": "PIEMONTE", "PROVINCIA": "AL", "COMUNE": "SILVANO D'ORBA", "SPECIE": "CINGHIALE(SELVATICI)", "DATA_SOSPETTO": null, "DATA_CONFERMA": null, "ESITO": "N", "DATA_PRELIEVO": "2022-03-09", "DATA": "2022-03-09" }, "geometry": { "type": "Point", "coordinates": [ 8.67286, 44.6621 ] } },
{ "type": "Feature", "properties": { "REGIONE": "PIEMONTE", "PROVINCIA": "AL", "COMUNE": "VIGNOLE BORBERA", "SPECIE": "CINGHIALE(SELVATICI)", "DATA_SOSPETTO": null, "DATA_CONFERMA": null, "ESITO": "N", "DATA_PRELIEVO": "2022-03-09", "DATA": "2022-03-09" }, "geometry": { "type": "Point", "coordinates": [ 8.884116, 44.709376 ] } },
{ "type": "Feature", "properties": { "REGIONE": "PIEMONTE", "PROVINCIA": "AL", "COMUNE": "SAN SALVATORE MONFERRATO", "SPECIE": "CINGHIALE(SELVATICI)", "DATA_SOSPETTO": null, "DATA_CONFERMA": null, "ESITO": "N", "DATA_PRELIEVO": "2022-03-09", "DATA": "2022-03-09" }, "geometry": { "type": "Point", "coordinates": [ 8.54357, 45.01985 ] } },
{ "type": "Feature", "properties": { "REGIONE": "PIEMONTE", "PROVINCIA": "CN", "COMUNE": "CUNEO", "SPECIE": "CINGHIALE(SELVATICI)", "DATA_SOSPETTO": null, "DATA_CONFERMA": null, "ESITO": "N", "DATA_PRELIEVO": "2022-03-09", "DATA": "2022-03-09" }, "geometry": { "type": "Point", "coordinates": [ 7.531229, 44.476362 ] } },
{ "type": "Feature", "properties": { "REGIONE": "PIEMONTE", "PROVINCIA": "AL", "COMUNE": "CARPENETO", "SPECIE": "CINGHIALE(SELVATICI)", "DATA_SOSPETTO": null, "DATA_CONFERMA": null, "ESITO": "N", "DATA_PRELIEVO": "2022-03-09", "DATA": "2022-03-09" }, "geometry": { "type": "Point", "coordinates": [ 8.62156, 44.687012 ] } },
{ "type": "Feature", "properties": { "REGIONE": "PIEMONTE", "PROVINCIA": "AL", "COMUNE": "PECETTO DI VALENZA", "SPECIE": "CINGHIALE(SELVATICI)", "DATA_SOSPETTO": null, "DATA_CONFERMA": null, "ESITO": "N", "DATA_PRELIEVO": "2022-03-09", "DATA": "2022-03-09" }, "geometry": { "type": "Point", "coordinates": [ 8.698336, 44.996574 ] } },
{ "type": "Feature", "properties": { "REGIONE": "LIGURIA", "PROVINCIA": "GE", "COMUNE": "BUSALLA", "SPECIE": "CINGHIALE(SELVATICI)", "DATA_SOSPETTO": null, "DATA_CONFERMA": null, "ESITO": "N", "DATA_PRELIEVO": "2022-03-09", "DATA": "2022-03-09" }, "geometry": { "type": "Point", "coordinates": [ 8.982299, 44.583752 ] } },
{ "type": "Feature", "properties": { "REGIONE": "LOMBARDIA", "PROVINCIA": "PV", "COMUNE": "CASTELLETTO DI BRANDUZZO", "SPECIE": "CINGHIALE(SELVATICI)", "DATA_SOSPETTO": null, "DATA_CONFERMA": null, "ESITO": "N", "DATA_PRELIEVO": "2022-03-07", "DATA": "2022-03-08" }, "geometry": { "type": "Point", "coordinates": [ 9.088252, 45.059665 ] } },
{ "type": "Feature", "properties": { "REGIONE": "LIGURIA", "PROVINCIA": "GE", "COMUNE": "RAPALLO", "SPECIE": "CINGHIALE(SELVATICI)", "DATA_SOSPETTO": null, "DATA_CONFERMA": null, "ESITO": "N", "DATA_PRELIEVO": "2022-03-08", "DATA": "2022-03-08" }, "geometry": { "type": "Point", "coordinates": [ 9.23703, 44.368191 ] } },
{ "type": "Feature", "properties": { "REGIONE": "PIEMONTE", "PROVINCIA": "AL", "COMUNE": "OVADA", "SPECIE": "CINGHIALE(SELVATICI)", "DATA_SOSPETTO": "2022-03-08", "DATA_CONFERMA": "2022-03-11", "ESITO": "P", "DATA_PRELIEVO": null, "DATA": "2022-03-08" }, "geometry": { "type": "Point", "coordinates": [ 8.636758, 44.609278 ] } },
{ "type": "Feature", "properties": { "REGIONE": "LOMBARDIA", "PROVINCIA": "PV", "COMUNE": "CASTELLETTO DI BRANDUZZO", "SPECIE": "CINGHIALE(SELVATICI)", "DATA_SOSPETTO": null, "DATA_CONFERMA": null, "ESITO": "N", "DATA_PRELIEVO": "2022-03-07", "DATA": "2022-03-08" }, "geometry": { "type": "Point", "coordinates": [ 9.088252, 45.059665 ] } },
{ "type": "Feature", "properties": { "REGIONE": "LOMBARDIA", "PROVINCIA": "PV", "COMUNE": "CASTELLETTO DI BRANDUZZO", "SPECIE": "CINGHIALE(SELVATICI)", "DATA_SOSPETTO": null, "DATA_CONFERMA": null, "ESITO": "N", "DATA_PRELIEVO": "2022-03-07", "DATA": "2022-03-08" }, "geometry": { "type": "Point", "coordinates": [ 9.088252, 45.059665 ] } },
{ "type": "Feature", "properties": { "REGIONE": "PIEMONTE", "PROVINCIA": "AL", "COMUNE": "ALICE BEL COLLE", "SPECIE": "CINGHIALE(SELVATICI)", "DATA_SOSPETTO": null, "DATA_CONFERMA": null, "ESITO": "N", "DATA_PRELIEVO": "2022-03-08", "DATA": "2022-03-08" }, "geometry": { "type": "Point", "coordinates": [ 8.454726, 44.714286 ] } },
{ "type": "Feature", "properties": { "REGIONE": "LOMBARDIA", "PROVINCIA": "PV", "COMUNE": "CASTELLETTO DI BRANDUZZO", "SPECIE": "CINGHIALE(SELVATICI)", "DATA_SOSPETTO": null, "DATA_CONFERMA": null, "ESITO": "N", "DATA_PRELIEVO": "2022-03-07", "DATA": "2022-03-08" }, "geometry": { "type": "Point", "coordinates": [ 9.088252, 45.059665 ] } },
{ "type": "Feature", "properties": { "REGIONE": "PIEMONTE", "PROVINCIA": "AT", "COMUNE": "PIOVA' MASSAIA", "SPECIE": "CINGHIALE(SELVATICI)", "DATA_SOSPETTO": null, "DATA_CONFERMA": null, "ESITO": "N", "DATA_PRELIEVO": "2022-03-07", "DATA": "2022-03-07" }, "geometry": { "type": "Point", "coordinates": [ 8.034495, 45.028926 ] } },
{ "type": "Feature", "properties": { "REGIONE": "PIEMONTE", "PROVINCIA": "AL", "COMUNE": "VOLTAGGIO", "SPECIE": "CINGHIALE(SELVATICI)", "DATA_SOSPETTO": "2022-03-07", "DATA_CONFERMA": "2022-03-08", "ESITO": "P", "DATA_PRELIEVO": null, "DATA": "2022-03-07" }, "geometry": { "type": "Point", "coordinates": [ 8.85022, 44.58673 ] } },
{ "type": "Feature", "properties": { "REGIONE": "LIGURIA", "PROVINCIA": "GE", "COMUNE": "CARASCO", "SPECIE": "CINGHIALE(SELVATICI)", "DATA_SOSPETTO": null, "DATA_CONFERMA": null, "ESITO": "N", "DATA_PRELIEVO": "2022-03-06", "DATA": "2022-03-07" }, "geometry": { "type": "Point", "coordinates": [ 9.358883, 44.346785 ] } },
{ "type": "Feature", "properties": { "REGIONE": "PIEMONTE", "PROVINCIA": "AL", "COMUNE": "BASALUZZO", "SPECIE": "SUINI(DOMESTICI)", "DATA_SOSPETTO": null, "DATA_CONFERMA": null, "ESITO": "N", "DATA_PRELIEVO": "2022-03-06", "DATA": "2022-03-07" }, "geometry": { "type": "Point", "coordinates": [ 8.721473, 44.782798 ] } },
{ "type": "Feature", "properties": { "REGIONE": "LIGURIA", "PROVINCIA": "GE", "COMUNE": "MELE", "SPECIE": "CINGHIALE(SELVATICI)", "DATA_SOSPETTO": null, "DATA_CONFERMA": null, "ESITO": "N", "DATA_PRELIEVO": "2022-03-07", "DATA": "2022-03-07" }, "geometry": { "type": "Point", "coordinates": [ 8.759444, 44.479722 ] } },
{ "type": "Feature", "properties": { "REGIONE": "PIEMONTE", "PROVINCIA": "AL", "COMUNE": "ACQUI TERME", "SPECIE": "CINGHIALE(SELVATICI)", "DATA_SOSPETTO": null, "DATA_CONFERMA": null, "ESITO": "N", "DATA_PRELIEVO": "2022-03-06", "DATA": "2022-03-06" }, "geometry": { "type": "Point", "coordinates": [ 8.483466, 44.666329 ] } },
{ "type": "Feature", "properties": { "REGIONE": "LIGURIA", "PROVINCIA": "GE", "COMUNE": "ROSSIGLIONE", "SPECIE": "CINGHIALE(SELVATICI)", "DATA_SOSPETTO": "2022-03-06", "DATA_CONFERMA": "2022-03-09", "ESITO": "P", "DATA_PRELIEVO": null, "DATA": "2022-03-06" }, "geometry": { "type": "Point", "coordinates": [ 8.692933, 44.573013 ] } },
{ "type": "Feature", "properties": { "REGIONE": "LOMBARDIA", "PROVINCIA": "PV", "COMUNE": "TORRAZZA COSTE", "SPECIE": "CINGHIALE(SELVATICI)", "DATA_SOSPETTO": null, "DATA_CONFERMA": null, "ESITO": "N", "DATA_PRELIEVO": "2022-03-05", "DATA": "2022-03-06" }, "geometry": { "type": "Point", "coordinates": [ 9.086143, 44.976086 ] } },
{ "type": "Feature", "properties": { "REGIONE": "LIGURIA", "PROVINCIA": "GE", "COMUNE": "ROSSIGLIONE", "SPECIE": "CINGHIALE(SELVATICI)", "DATA_SOSPETTO": "2022-03-06", "DATA_CONFERMA": "2022-03-08", "ESITO": "P", "DATA_PRELIEVO": null, "DATA": "2022-03-06" }, "geometry": { "type": "Point", "coordinates": [ 8.693741, 44.573854 ] } },
{ "type": "Feature", "properties": { "REGIONE": "LOMBARDIA", "PROVINCIA": "PV", "COMUNE": "VOGHERA", "SPECIE": "CINGHIALE(SELVATICI)", "DATA_SOSPETTO": null, "DATA_CONFERMA": null, "ESITO": "N", "DATA_PRELIEVO": "2022-03-05", "DATA": "2022-03-06" }, "geometry": { "type": "Point", "coordinates": [ 9.012044, 44.99166 ] } },
{ "type": "Feature", "properties": { "REGIONE": "PIEMONTE", "PROVINCIA": "AT", "COMUNE": "LOAZZOLO", "SPECIE": "CINGHIALE(SELVATICI)", "DATA_SOSPETTO": null, "DATA_CONFERMA": null, "ESITO": "N", "DATA_PRELIEVO": "2022-03-06", "DATA": "2022-03-06" }, "geometry": { "type": "Point", "coordinates": [ 8.277081, 44.68711 ] } },
{ "type": "Feature", "properties": { "REGIONE": "LIGURIA", "PROVINCIA": "GE", "COMUNE": "ROSSIGLIONE", "SPECIE": "CINGHIALE(SELVATICI)", "DATA_SOSPETTO": "2022-03-06", "DATA_CONFERMA": "2022-03-09", "ESITO": "P", "DATA_PRELIEVO": null, "DATA": "2022-03-06" }, "geometry": { "type": "Point", "coordinates": [ 8.69538, 44.570389 ] } },
{ "type": "Feature", "properties": { "REGIONE": "LIGURIA", "PROVINCIA": "GE", "COMUNE": "ROSSIGLIONE", "SPECIE": "CINGHIALE(SELVATICI)", "DATA_SOSPETTO": "2022-03-06", "DATA_CONFERMA": "2022-03-09", "ESITO": "P", "DATA_PRELIEVO": null, "DATA": "2022-03-06" }, "geometry": { "type": "Point", "coordinates": [ 8.693528, 44.572726 ] } },
{ "type": "Feature", "properties": { "REGIONE": "PIEMONTE", "PROVINCIA": "CN", "COMUNE": "VICOFORTE", "SPECIE": "CINGHIALE(SELVATICI)", "DATA_SOSPETTO": null, "DATA_CONFERMA": null, "ESITO": "N", "DATA_PRELIEVO": "2022-03-05", "DATA": "2022-03-05" }, "geometry": { "type": "Point", "coordinates": [ 7.877165, 44.368403 ] } },
{ "type": "Feature", "properties": { "REGIONE": "PIEMONTE", "PROVINCIA": "CN", "COMUNE": "CORTEMILIA", "SPECIE": "CINGHIALE(SELVATICI)", "DATA_SOSPETTO": null, "DATA_CONFERMA": null, "ESITO": "NE", "DATA_PRELIEVO": "2022-03-04", "DATA": "2022-03-05" }, "geometry": { "type": "Point", "coordinates": [ 8.194304, 44.561398 ] } },
{ "type": "Feature", "properties": { "REGIONE": "PIEMONTE", "PROVINCIA": "AL", "COMUNE": "CAPRIATA D'ORBA", "SPECIE": "CINGHIALE(SELVATICI)", "DATA_SOSPETTO": null, "DATA_CONFERMA": null, "ESITO": "N", "DATA_PRELIEVO": "2022-03-05", "DATA": "2022-03-05" }, "geometry": { "type": "Point", "coordinates": [ 8.682292, 44.755348 ] } },
{ "type": "Feature", "properties": { "REGIONE": "PIEMONTE", "PROVINCIA": "CN", "COMUNE": "CORTEMILIA", "SPECIE": "CINGHIALE(SELVATICI)", "DATA_SOSPETTO": null, "DATA_CONFERMA": null, "ESITO": "NE", "DATA_PRELIEVO": "2022-03-04", "DATA": "2022-03-05" }, "geometry": { "type": "Point", "coordinates": [ 8.194648, 44.564578 ] } },
{ "type": "Feature", "properties": { "REGIONE": "LIGURIA", "PROVINCIA": "GE", "COMUNE": "CAMPO LIGURE", "SPECIE": "CINGHIALE(SELVATICI)", "DATA_SOSPETTO": "2022-03-05", "DATA_CONFERMA": "2022-03-09", "ESITO": "P", "DATA_PRELIEVO": null, "DATA": "2022-03-05" }, "geometry": { "type": "Point", "coordinates": [ 8.702313, 44.54099 ] } },
{ "type": "Feature", "properties": { "REGIONE": "PIEMONTE", "PROVINCIA": "AL", "COMUNE": "CASALEGGIO BOIRO", "SPECIE": "CINGHIALE(SELVATICI)", "DATA_SOSPETTO": "2022-03-05", "DATA_CONFERMA": "2022-03-07", "ESITO": "P", "DATA_PRELIEVO": null, "DATA": "2022-03-05" }, "geometry": { "type": "Point", "coordinates": [ 8.728565, 44.635984 ] } },
{ "type": "Feature", "properties": { "REGIONE": "PIEMONTE", "PROVINCIA": "AL", "COMUNE": "ALESSANDRIA", "SPECIE": "CINGHIALE(SELVATICI)", "DATA_SOSPETTO": null, "DATA_CONFERMA": null, "ESITO": "N", "DATA_PRELIEVO": "2022-03-05", "DATA": "2022-03-05" }, "geometry": { "type": "Point", "coordinates": [ 8.559065, 44.923228 ] } },
{ "type": "Feature", "properties": { "REGIONE": "PIEMONTE", "PROVINCIA": "AL", "COMUNE": "ALESSANDRIA", "SPECIE": "CINGHIALE(SELVATICI)", "DATA_SOSPETTO": null, "DATA_CONFERMA": null, "ESITO": "N", "DATA_PRELIEVO": "2022-03-04", "DATA": "2022-03-04" }, "geometry": { "type": "Point", "coordinates": [ 8.538466, 44.921435 ] } },
{ "type": "Feature", "properties": { "REGIONE": "PIEMONTE", "PROVINCIA": "CN", "COMUNE": "MARENE", "SPECIE": "CINGHIALE(SELVATICI)", "DATA_SOSPETTO": null, "DATA_CONFERMA": null, "ESITO": "N", "DATA_PRELIEVO": "2022-03-04", "DATA": "2022-03-04" }, "geometry": { "type": "Point", "coordinates": [ 7.723323, 44.657095 ] } },
{ "type": "Feature", "properties": { "REGIONE": "LIGURIA", "PROVINCIA": "SV", "COMUNE": "QUILIANO", "SPECIE": "CINGHIALE(SELVATICI)", "DATA_SOSPETTO": null, "DATA_CONFERMA": null, "ESITO": "N", "DATA_PRELIEVO": "2022-03-03", "DATA": "2022-03-04" }, "geometry": { "type": "Point", "coordinates": [ 8.421654, 44.290022 ] } },
{ "type": "Feature", "properties": { "REGIONE": "PIEMONTE", "PROVINCIA": "AL", "COMUNE": "OTTIGLIO", "SPECIE": "CINGHIALE(SELVATICI)", "DATA_SOSPETTO": null, "DATA_CONFERMA": null, "ESITO": "N", "DATA_PRELIEVO": "2022-03-04", "DATA": "2022-03-04" }, "geometry": { "type": "Point", "coordinates": [ 8.335587, 45.050657 ] } },
{ "type": "Feature", "properties": { "REGIONE": "PIEMONTE", "PROVINCIA": "AL", "COMUNE": "MASIO", "SPECIE": "SUINI(DOMESTICI)", "DATA_SOSPETTO": null, "DATA_CONFERMA": null, "ESITO": "N", "DATA_PRELIEVO": "2022-03-04", "DATA": "2022-03-04" }, "geometry": { "type": "Point", "coordinates": [ 8.451836, 44.864002 ] } },
{ "type": "Feature", "properties": { "REGIONE": "PIEMONTE", "PROVINCIA": "AL", "COMUNE": "GRONDONA", "SPECIE": "CINGHIALE(SELVATICI)", "DATA_SOSPETTO": null, "DATA_CONFERMA": null, "ESITO": "N", "DATA_PRELIEVO": "2022-03-04", "DATA": "2022-03-04" }, "geometry": { "type": "Point", "coordinates": [ 8.989804, 44.701258 ] } },
{ "type": "Feature", "properties": { "REGIONE": "LIGURIA", "PROVINCIA": "GE", "COMUNE": "GENOVA", "SPECIE": "CINGHIALE(SELVATICI)", "DATA_SOSPETTO": null, "DATA_CONFERMA": null, "ESITO": "N", "DATA_PRELIEVO": "2022-03-04", "DATA": "2022-03-04" }, "geometry": { "type": "Point", "coordinates": [ 8.97044, 44.415435 ] } },
{ "type": "Feature", "properties": { "REGIONE": "PIEMONTE", "PROVINCIA": "AT", "COMUNE": "ASTI", "SPECIE": "CINGHIALE(SELVATICI)", "DATA_SOSPETTO": null, "DATA_CONFERMA": null, "ESITO": "N", "DATA_PRELIEVO": "2022-03-04", "DATA": "2022-03-04" }, "geometry": { "type": "Point", "coordinates": [ 8.16146, 44.93259 ] } },
{ "type": "Feature", "properties": { "REGIONE": "LIGURIA", "PROVINCIA": "GE", "COMUNE": "GENOVA", "SPECIE": "CINGHIALE(SELVATICI)", "DATA_SOSPETTO": null, "DATA_CONFERMA": null, "ESITO": "N", "DATA_PRELIEVO": "2022-03-04", "DATA": "2022-03-04" }, "geometry": { "type": "Point", "coordinates": [ 8.856388, 44.469166 ] } },
{ "type": "Feature", "properties": { "REGIONE": "LOMBARDIA", "PROVINCIA": "PV", "COMUNE": "VOGHERA", "SPECIE": "CINGHIALE(SELVATICI)", "DATA_SOSPETTO": null, "DATA_CONFERMA": null, "ESITO": "N", "DATA_PRELIEVO": "2022-03-02", "DATA": "2022-03-03" }, "geometry": { "type": "Point", "coordinates": [ 9.017909, 44.978579 ] } },
{ "type": "Feature", "properties": { "REGIONE": "LOMBARDIA", "PROVINCIA": "PV", "COMUNE": "CANDIA LOMELLINA", "SPECIE": "CINGHIALE(SELVATICI)", "DATA_SOSPETTO": null, "DATA_CONFERMA": null, "ESITO": "N", "DATA_PRELIEVO": "2022-03-02", "DATA": "2022-03-03" }, "geometry": { "type": "Point", "coordinates": [ 8.594426, 45.176571 ] } },